{"data":{"geocaches":[{"id":"GC48YPE","parsed":{"lat":32.8476,"lon":-17.225767,"type":"mystery","name":"\"Naufrágio do Varuna\""}},{"id":"GC2PYPX","parsed":{"lat":32.833483,"lon":-17.237033,"type":"traditional","name":"Capela do Cabo"}},{"id":"GC2PYPN","parsed":{"lat":32.82985,"lon":-17.240783,"type":"traditional","name":"Vermelho"}},{"id":"GC2PYP9","parsed":{"lat":32.82045,"lon":-17.25205,"type":"traditional","name":"Garganta Funda"}},{"id":"GC5MQ9N","parsed":{"lat":32.816183,"lon":-17.256567,"type":"traditional","name":"RDP"}},{"id":"GC342EA","parsed":{"lat":32.813883,"lon":-17.263717,"type":"traditional","name":"Farol"}},{"id":"GC1WEFZ","parsed":{"lat":32.80975,"lon":-17.256433,"type":"traditional","name":"A casa do Jack (@Ponta do Pargo / Madeira)"}},{"id":"GC44C95","parsed":{"lat":32.807817,"lon":-17.23385,"type":"mystery","name":"Calhetacooltural - Ponta do Pargo"}},{"id":"GC56Z4W","parsed":{"lat":32.805617,"lon":-17.255,"type":"traditional","name":"Casa do Calhau"}},{"id":"GC56Z4M","parsed":{"lat":32.80185,"lon":-17.250883,"type":"traditional","name":"Mar & Sol"}},{"id":"GC2PYP5","parsed":{"lat":32.786583,"lon":-17.239367,"type":"traditional","name":"Lombada dos Marinheiros"}},{"id":"GC44C9Y","parsed":{"lat":32.783317,"lon":-17.233317,"type":"mystery","name":"Calhetacooltural - Fajã da Ovelha"}},{"id":"GC40NE9","parsed":{"lat":32.769833,"lon":-17.236567,"type":"traditional","name":"Zimbreiros"}},{"id":"GC2PYP2","parsed":{"lat":32.759333,"lon":-17.223167,"type":"traditional","name":"Raposeira"}},{"id":"GC44C6A","parsed":{"lat":32.7525,"lon":-17.225,"type":"mystery","name":"Calhetacooltural - Paul do Mar"}},{"id":"GC5PJAV","parsed":{"lat":32.8688,"lon":-17.17105,"type":"earth","name":"Piscinas Naturais do Porto Moniz"}},{"id":"GC3KX1V","parsed":{"lat":32.869583,"lon":-17.16415,"type":"traditional","name":"Ilhéu Mole"}},{"id":"GC3AY7A","parsed":{"lat":32.866683,"lon":-17.198933,"type":"traditional","name":"Ponta do Tristão"}},{"id":"GC4ECW0","parsed":{"lat":32.866783,"lon":-17.183383,"type":"traditional","name":"---Entre a Baixa e o Ilhéu---"}},{"id":"GC35QE1","parsed":{"lat":32.864333,"lon":-17.179333,"type":"traditional","name":"Miradouro do Pico"}},{"id":"GC3W5QH","parsed":{"lat":32.865667,"lon":-17.173967,"type":"multi","name":"Fábrica da Manteiga do Porto Moniz"}},{"id":"GC3VF6K","parsed":{"lat":32.865717,"lon":-17.164217,"type":"multi","name":"Transportes da Madeira"}},{"id":"GC1PJET","parsed":{"lat":32.862167,"lon":-17.172183,"type":"traditional","name":"PORTO MONIZ BELOW! - M3"}},{"id":"GC5KYCZ","parsed":{"lat":32.85665,"lon":-17.211283,"type":"earth","name":"EC18PM OS FILÕES DA FAJÃ DAS ACHADAS DA CRUZ"}},{"id":"GC4B2NT","parsed":{"lat":32.855017,"lon":-17.198433,"type":"mystery","name":"---Até a Nascente---"}},{"id":"GC2EC40","parsed":{"lat":32.85565,"lon":-17.15345,"type":"earth","name":"Ribeira Da Janela, la belle"}},{"id":"GC3YFYB","parsed":{"lat":32.853033,"lon":-17.150667,"type":"traditional","name":"Túneis da Madeira"}},{"id":"GC3AX83","parsed":{"lat":32.8514,"lon":-17.216967,"type":"traditional","name":"Calhau das Achadas"}},{"id":"GC4C4WD","parsed":{"lat":32.85095,"lon":-17.197683,"type":"traditional","name":"--- A Levadinha ---"}},{"id":"GC421PA","parsed":{"lat":32.85085,"lon":-17.174467,"type":"traditional","name":"PT #3 \"Abre Caminho\""}},{"id":"GC1YNYJ","parsed":{"lat":32.851667,"lon":-17.166667,"type":"mystery","name":"O Mistério dos Alemães - First German Mystery"}},{"id":"GC2PYQ8","parsed":{"lat":32.848383,"lon":-17.153033,"type":"traditional","name":"Eira da Achada"}},{"id":"GC421QC","parsed":{"lat":32.846867,"lon":-17.174133,"type":"traditional","name":"PT #4 \"Estádio da Craqueja\""}},{"id":"GC4221R","parsed":{"lat":32.844117,"lon":-17.194,"type":"multi","name":"PT #10 \"RVM 12 - A Queimar Asfalto\""}},{"id":"GC3WQMX","parsed":{"lat":32.8438,"lon":-17.168383,"type":"traditional","name":"Fajã dos Barbusanos "}},{"id":"GC492YD","parsed":{"lat":32.844083,"lon":-17.155067,"type":"mystery","name":"\"Geo Scouts\""}},{"id":"GC421TD","parsed":{"lat":32.8422,"lon":-17.1783,"type":"traditional","name":"PT #6 \"Atolado na Lama\""}},{"id":"GC3XY0M","parsed":{"lat":32.839583,"lon":-17.173617,"type":"traditional","name":"Bubbles"}},{"id":"GC424N8","parsed":{"lat":32.835317,"lon":-17.209817,"type":"traditional","name":"PT #11 \"Pinheiral\""}},{"id":"GC55D9K","parsed":{"lat":32.835767,"lon":-17.18865,"type":"multi","name":"Levada do Brasileiro"}},{"id":"GC3XXYT","parsed":{"lat":32.834467,"lon":-17.178567,"type":"traditional","name":"\"Alegra-Campo\""}},{"id":"GC424VJ","parsed":{"lat":32.8304,"lon":-17.204883,"type":"traditional","name":"PT #13 \"A Curva\""}},{"id":"GC2RXXN","parsed":{"lat":32.830917,"lon":-17.13395,"type":"traditional","name":"Ribeira Funda"}},{"id":"GC1TPZY","parsed":{"lat":32.824817,"lon":-17.19205,"type":"traditional","name":"Elias"}},{"id":"GC3YZKT","parsed":{"lat":32.826683,"lon":-17.114683,"type":"traditional","name":"\"Vamos a Banhos?\""}},{"id":"GC45WQB","parsed":{"lat":32.822883,"lon":-17.17705,"type":"traditional","name":"\"My First Levada Walk\""}},{"id":"GC4Q9CV","parsed":{"lat":32.820367,"lon":-17.202733,"type":"traditional","name":"PR7 - Levada do Moinho"}},{"id":"GC3Y6W7","parsed":{"lat":32.81815,"lon":-17.160517,"type":"traditional","name":"\"GUESS\""}},{"id":"GC4NJYM","parsed":{"lat":32.819367,"lon":-17.105367,"type":"traditional","name":"A rocha / The Rock "}},{"id":"GC45YJY","parsed":{"lat":32.816883,"lon":-17.146533,"type":"multi","name":"The Giant"}},{"id":"GC2VVCH","parsed":{"lat":32.8159,"lon":-17.09495,"type":"traditional","name":"Véu da Noiva"}},{"id":"GC75RHH","parsed":{"lat":32.813167,"lon":-17.149383,"type":"traditional","name":"Lagoa encantada"}},{"id":"GC54RM8","parsed":{"lat":32.81305,"lon":-17.099517,"type":"traditional","name":"Cascatas do Lombo"}},{"id":"GC4253H","parsed":{"lat":32.81295,"lon":-17.193383,"type":"mystery","name":"PT #16 \"Grande Máquina\" Cache Bónus"}},{"id":"GCHQ5N","parsed":{"lat":32.809033,"lon":-17.1971,"type":"traditional","name":"Vaca"}},{"id":"GC2GVX7","parsed":{"lat":32.810333,"lon":-17.153733,"type":"traditional","name":"Levada dos Cedros 10-10-10"}},{"id":"GC6M5MB","parsed":{"lat":32.808617,"lon":-17.14165,"type":"traditional","name":"Posto Florestal do Fanal"}},{"id":"GC43QPH","parsed":{"lat":32.81015,"lon":-17.1374,"type":"traditional","name":"PT#12 \"A Chegada ao Reino\""}},{"id":"GC3H7A6","parsed":{"lat":32.808933,"lon":-17.125483,"type":"multi","name":"Fio"}},{"id":"GC49N6Y","parsed":{"lat":32.808383,"lon":-17.10445,"type":"traditional","name":"Fio da Terra Chã"}},{"id":"GC3YZKC","parsed":{"lat":32.8088,"lon":-17.0531,"type":"traditional","name":"\"O Surfista-Areal S. Vicente\""}},{"id":"GC3BT5V","parsed":{"lat":32.807767,"lon":-17.047017,"type":"multi","name":"São Vicente Treasure"}},{"id":"GC4FTV4","parsed":{"lat":32.8044,"lon":-17.157017,"type":"traditional","name":"Madre da Levada da Ribeira da Janela"}},{"id":"GC3Y6HA","parsed":{"lat":32.80535,"lon":-17.14855,"type":"traditional","name":"\"Miradouro dos Cedros\""}},{"id":"GC43QPA","parsed":{"lat":32.8027,"lon":-17.130217,"type":"traditional","name":"PT#11 \" A Vista Pro Reino\""}},{"id":"GC3Y6V3","parsed":{"lat":32.79945,"lon":-17.143983,"type":"traditional","name":"\"A Cascata dos Cedros\""}},{"id":"GC4FV1F","parsed":{"lat":32.798067,"lon":-17.1601,"type":"traditional","name":"Galhano"}},{"id":"GC41H81","parsed":{"lat":32.795467,"lon":-17.184083,"type":"traditional","name":"PT#2 - February"}},{"id":"GC4PDB0","parsed":{"lat":32.795883,"lon":-17.1763,"type":"traditional","name":"Miradouro do Galhano"}},{"id":"GC43QNZ","parsed":{"lat":32.795167,"lon":-17.1302,"type":"traditional","name":"PT#10 \"Incenso\""}},{"id":"GC283FX","parsed":{"lat":32.7948,"lon":-17.04785,"type":"mystery","name":"E.R. 101"}},{"id":"GC49JTQ","parsed":{"lat":32.793467,"lon":-17.10035,"type":"traditional","name":"Pico da Furna"}},{"id":"GC41H8M","parsed":{"lat":32.792167,"lon":-17.179467,"type":"traditional","name":"PT#7 - July"}},{"id":"GC18W30","parsed":{"lat":32.791517,"lon":-17.12845,"type":"traditional","name":"Janéla"}},{"id":"GC4FX2Q","parsed":{"lat":32.788833,"lon":-17.1579,"type":"traditional","name":"Acampamento na Ribeira da Janela"}},{"id":"GC1JVJW","parsed":{"lat":32.788567,"lon":-17.1384,"type":"traditional","name":"Muito Longe"}},{"id":"GC43QNF","parsed":{"lat":32.78965,"lon":-17.1323,"type":"traditional","name":"PT#9 \"Mirra\""}},{"id":"GC4BV00","parsed":{"lat":32.78795,"lon":-17.12575,"type":"traditional","name":"\"WaterFalls\""}},{"id":"GC42JDN","parsed":{"lat":32.789433,"lon":-17.117433,"type":"multi","name":"Cascatas das Faias"}},{"id":"GC5BHY1","parsed":{"lat":32.78815,"lon":-17.070983,"type":"traditional","name":"1Km Tunnel"}},{"id":"GC41H8Q","parsed":{"lat":32.786217,"lon":-17.1805,"type":"traditional","name":"PT#8 - August"}},{"id":"GC4VG3D","parsed":{"lat":32.7874,"lon":-17.11095,"type":"traditional","name":"ALPINISTA"}},{"id":"GC5QKBC","parsed":{"lat":32.7862,"lon":-17.090783,"type":"traditional","name":"Caminho dos Pessegueiros"}},{"id":"GC451V9","parsed":{"lat":32.78745,"lon":-17.05255,"type":"mystery","name":"Virtual Stage"}},{"id":"GC1JMJ1","parsed":{"lat":32.783417,"lon":-17.14205,"type":"traditional","name":"Stairway to Heaven"}},{"id":"GC62T95","parsed":{"lat":32.783317,"lon":-17.065483,"type":"traditional","name":"Nikola Tesla - O Génio!!!"}},{"id":"GC4WGM6","parsed":{"lat":32.78225,"lon":-17.11105,"type":"traditional","name":"Levada do Seixal"}},{"id":"GC5P92V","parsed":{"lat":32.781783,"lon":-17.083233,"type":"traditional","name":"Madre da Levada do Plaino Velho"}},{"id":"GC5P92H","parsed":{"lat":32.78105,"lon":-17.073883,"type":"traditional","name":"\"Passagem\" do Plaino Velho"}},{"id":"GC6QXRZ","parsed":{"lat":32.77865,"lon":-17.1928,"type":"traditional","name":"August 2016 - Fire on Madeira"}},{"id":"GC43QN5","parsed":{"lat":32.779983,"lon":-17.13645,"type":"traditional","name":"PT#8 \"Ouro\""}},{"id":"GC45YK3","parsed":{"lat":32.779117,"lon":-17.10685,"type":"traditional","name":"Madre do Norte"}},{"id":"GC46CQW","parsed":{"lat":32.77975,"lon":-17.051217,"type":"earth","name":"\"Géiser\""}},{"id":"GC46EJP","parsed":{"lat":32.777033,"lon":-17.162783,"type":"traditional","name":"Beleza da Madeira"}},{"id":"GC4PPEY","parsed":{"lat":32.7778,"lon":-17.114767,"type":"traditional","name":"Vale Encantado"}},{"id":"GC2KMVC","parsed":{"lat":32.776967,"lon":-17.080433,"type":"traditional","name":"Paul da Serra 360"}},{"id":"GC5PH0K","parsed":{"lat":32.777317,"lon":-17.07585,"type":"traditional","name":"Lev. do Plaino Velho - Pico Ruivo do Paúl da Serra"}},{"id":"GC5P934","parsed":{"lat":32.776033,"lon":-17.068417,"type":"traditional","name":"Gruta do Plaino Velho"}},{"id":"GC5P92Y","parsed":{"lat":32.777367,"lon":-17.06405,"type":"traditional","name":"\"Miradouro\" do Plaino Velho"}},{"id":"GC4FTQE","parsed":{"lat":32.773833,"lon":-17.143267,"type":"traditional","name":"Cascata Encantada/ Enchanted Waterfall"}},{"id":"GC5B0NW","parsed":{"lat":32.774117,"lon":-17.055783,"type":"traditional","name":"Albert Einstein tribute"}},{"id":"GC43QN0","parsed":{"lat":32.77315,"lon":-17.130333,"type":"traditional","name":"PT#7 \"A Estrela\""}},{"id":"GC43QKM","parsed":{"lat":32.772933,"lon":-17.1197,"type":"traditional","name":"PT#5 \"O Encontro\""}},{"id":"GC5BBD0","parsed":{"lat":32.7729,"lon":-17.084133,"type":"traditional","name":"Fontes Ruivas"}},{"id":"GCWVTR","parsed":{"lat":32.771833,"lon":-17.076683,"type":"traditional","name":"Frogs"}},{"id":"GC2PYPZ","parsed":{"lat":32.7698,"lon":-17.155633,"type":"traditional","name":"Ponto"}},{"id":"GC5QKJQ","parsed":{"lat":32.769117,"lon":-17.057067,"type":"traditional","name":"Flashlight"}},{"id":"GC4FG6H","parsed":{"lat":32.76805,"lon":-17.129033,"type":"traditional","name":"Cascata da Rocha Vermelha"}},{"id":"GC43QJN","parsed":{"lat":32.768933,"lon":-17.116667,"type":"traditional","name":"PT#3 \"Belchior\""}},{"id":"GC43QHN","parsed":{"lat":32.76815,"lon":-17.11215,"type":"traditional","name":"PT#2 \"Baltasar\""}},{"id":"GC44CAP","parsed":{"lat":32.76505,"lon":-17.2101,"type":"mystery","name":"Calhetacooltural - Prazeres"}},{"id":"GC57W5K","parsed":{"lat":32.76635,"lon":-17.169833,"type":"traditional","name":"Casa dos Caçadores"}},{"id":"GC57W92","parsed":{"lat":32.76655,"lon":-17.141833,"type":"traditional","name":"Levada do Furado Velho"}},{"id":"GC4G91N","parsed":{"lat":32.765017,"lon":-17.130417,"type":"traditional","name":"Green Lagoon"}},{"id":"GC4JG0K","parsed":{"lat":32.76555,"lon":-17.125917,"type":"traditional","name":" 25 Fontes"}},{"id":"GC6838Y","parsed":{"lat":32.766333,"lon":-17.107567,"type":"traditional","name":"Rocky"}},{"id":"GC49YCX","parsed":{"lat":32.765383,"lon":-17.060483,"type":"traditional","name":"\"São Vicente View Point\""}},{"id":"GC45GGV","parsed":{"lat":32.764567,"lon":-17.048767,"type":"traditional","name":"Vistas fantásticas"}},{"id":"GC536Z4","parsed":{"lat":32.763267,"lon":-17.22,"type":"mystery","name":"Downhill"}},{"id":"GC47MKW","parsed":{"lat":32.763983,"lon":-17.082833,"type":"traditional","name":"PT Smile #4"}},{"id":"GC47MR2","parsed":{"lat":32.7634,"lon":-17.075483,"type":"mystery","name":"PT Smile #26 (Bonus)"}},{"id":"GC5B0QF","parsed":{"lat":32.762783,"lon":-17.0556,"type":"traditional","name":"Isaac Newton Tribute"}},{"id":"GC4HG2H","parsed":{"lat":32.76005,"lon":-17.122783,"type":"traditional","name":"The Edge: on the top of Risco Waterfall"}},{"id":"GC54YP6","parsed":{"lat":32.758767,"lon":-17.13425,"type":"traditional","name":"Ribeira do Alecrim"}},{"id":"GC47MM9","parsed":{"lat":32.7594,"lon":-17.083917,"type":"traditional","name":"PT Smile #7"}},{"id":"GC47MP2","parsed":{"lat":32.75955,"lon":-17.071467,"type":"traditional","name":"PT Smile #20"}},{"id":"GC2JZ78","parsed":{"lat":32.755367,"lon":-17.142017,"type":"traditional","name":"Casa do Shrek"}},{"id":"GC4N6WB","parsed":{"lat":32.757217,"lon":-17.1203,"type":"traditional","name":"Take a Break"}},{"id":"GC1KGMH","parsed":{"lat":32.755383,"lon":-17.1134,"type":"traditional","name":"Anita Nas Montanhas"}},{"id":"GC47MN0","parsed":{"lat":32.755967,"lon":-17.0797,"type":"traditional","name":"PT Smile #12"}},{"id":"GC47MND","parsed":{"lat":32.756317,"lon":-17.075567,"type":"traditional","name":"PT Smile #16"}},{"id":"GC41YXW","parsed":{"lat":32.753833,"lon":-17.149333,"type":"mystery","name":"Calhetacooltural - Calheta"}},{"id":"GC58T3K","parsed":{"lat":32.753333,"lon":-17.106667,"type":"mystery","name":"Puzzle 101 L3 - Translate"}},{"id":"GC48G7B","parsed":{"lat":32.755,"lon":-17.088333,"type":"traditional","name":"PT - Casa de Santana #9"}},{"id":"GC46D3G","parsed":{"lat":32.755,"lon":-17.06,"type":"mystery","name":"A tree"}},{"id":"GC49XPM","parsed":{"lat":32.754767,"lon":-17.052817,"type":"traditional","name":"\"Cachoeira\""}},{"id":"GC45GFX","parsed":{"lat":32.753183,"lon":-17.045633,"type":"traditional","name":"Pináculo / Monte Medonho"}},{"id":"GC2MFFV","parsed":{"lat":32.751833,"lon":-17.217917,"type":"traditional","name":"Prazer(es)"}},{"id":"GC40YPQ","parsed":{"lat":32.750833,"lon":-17.154167,"type":"mystery","name":"Just like a fairy tale..."}},{"id":"GC57N1R","parsed":{"lat":32.750917,"lon":-17.118767,"type":"mystery","name":"PONTA DO SOL AO FUNDO"}},{"id":"GC58T38","parsed":{"lat":32.752083,"lon":-17.101667,"type":"mystery","name":"Puzzle 101 L6 - Trivia"}},{"id":"GC4DDC3","parsed":{"lat":32.750833,"lon":-17.088333,"type":"mystery","name":"PT - Casa de Santana #30 - Bónus"}},{"id":"GC58T49","parsed":{"lat":32.749583,"lon":-17.108333,"type":"mystery","name":"Puzzle 101 L0 - Intro"}},{"id":"GC58T3T","parsed":{"lat":32.748333,"lon":-17.103333,"type":"mystery","name":"Puzzle 101 L9 - Matematica"}},{"id":"GC48G7W","parsed":{"lat":32.74875,"lon":-17.093333,"type":"traditional","name":"PT - Casa de Santana #4"}},{"id":"GC48G9M","parsed":{"lat":32.74875,"lon":-17.083333,"type":"traditional","name":"PT - Casa de Santana #14"}},{"id":"GC3APNN","parsed":{"lat":32.747017,"lon":-17.04595,"type":"traditional","name":"Parque Eólico das Pedras"}},{"id":"GC58T4F","parsed":{"lat":32.744583,"lon":-17.105,"type":"mystery","name":"Puzzle 101 L12 - Passatempos"}},{"id":"GC48G86","parsed":{"lat":32.745,"lon":-17.096333,"type":"traditional","name":"PT - Casa de Santana #1"}},{"id":"GC48G8E","parsed":{"lat":32.745,"lon":-17.092,"type":"traditional","name":"PT - Casa de Santana #26"}},{"id":"GC48G96","parsed":{"lat":32.745,"lon":-17.087083,"type":"traditional","name":"PT - Casa de Santana #20"}},{"id":"GC48G9A","parsed":{"lat":32.745,"lon":-17.082167,"type":"multi","name":"PT - Casa de Santana #18"}},{"id":"GC5A14M","parsed":{"lat":32.74165,"lon":-17.19915,"type":"traditional","name":"Caminho da Ribeira Funda"}},{"id":"GC4MHHT","parsed":{"lat":32.742867,"lon":-17.076783,"type":"traditional","name":"As aventuras de TINTIN"}},{"id":"GC5KKG2","parsed":{"lat":32.7408,"lon":-17.2129,"type":"earth","name":"JARDIM DO MAR - EROSÃO MARINHA"}},{"id":"GC2NMGH","parsed":{"lat":32.74115,"lon":-17.101717,"type":"traditional","name":"Cova Grande"}},{"id":"GC2BBVZ","parsed":{"lat":32.740983,"lon":-17.0661,"type":"traditional","name":"Stonehenge"}},{"id":"GC44CB1","parsed":{"lat":32.735233,"lon":-17.208783,"type":"mystery","name":"Calhetacooltural - Jardim do Mar"}},{"id":"GC33TZE","parsed":{"lat":32.734583,"lon":-17.183533,"type":"traditional","name":"Capela dos Reis Magos"}},{"id":"GC5A153","parsed":{"lat":32.733183,"lon":-17.201917,"type":"traditional","name":"Jardim Pelado"}},{"id":"GC4DP1G","parsed":{"lat":32.733517,"lon":-17.061867,"type":"multi","name":"Black Sheep"}},{"id":"GC36DFZ","parsed":{"lat":32.73305,"lon":-17.05265,"type":"traditional","name":"Pedras 360"}},{"id":"GC57W80","parsed":{"lat":32.73035,"lon":-17.181533,"type":"traditional","name":"Caminho das Furnas"}},{"id":"GC41X5N","parsed":{"lat":32.72945,"lon":-17.159567,"type":"traditional","name":"Igreja do Atouguia"}},{"id":"GC57N2D","parsed":{"lat":32.729517,"lon":-17.095933,"type":"traditional","name":"Half way to Ponta do Sol or to Paul da Serra?"}},{"id":"GC3YW3Z","parsed":{"lat":32.727133,"lon":-17.187733,"type":"mystery","name":"Calhetacooltural - Estreito da Calheta"}},{"id":"GC5965Q","parsed":{"lat":32.726133,"lon":-17.17165,"type":"traditional","name":"BVC"}},{"id":"GC4T8ZG","parsed":{"lat":32.7251,"lon":-17.190883,"type":"traditional","name":"Galé Defiance 2013"}},{"id":"GC2KPY6","parsed":{"lat":32.72065,"lon":-17.177067,"type":"traditional","name":"Calheta"}},{"id":"GC48053","parsed":{"lat":32.7091,"lon":-17.116667,"type":"traditional","name":"Torre-relógio da Levada do Poiso"}},{"id":"GC3HQ58","parsed":{"lat":32.708233,"lon":-17.1456,"type":"traditional","name":"Pombal"}},{"id":"GC3FH50","parsed":{"lat":32.70755,"lon":-17.128017,"type":"multi","name":"Ribeira da Madalena"}},{"id":"GC62219","parsed":{"lat":32.7069,"lon":-17.122217,"type":"traditional","name":"O Labrador"}},{"id":"GC3Y7QQ","parsed":{"lat":32.70715,"lon":-17.0988,"type":"traditional","name":"Fonte Do Coxo"}},{"id":"GC33V5V","parsed":{"lat":32.7062,"lon":-17.139833,"type":"traditional","name":"Miradouro do Arco"}},{"id":"GC2QW8W","parsed":{"lat":32.704717,"lon":-17.049783,"type":"multi","name":"Furna"}},{"id":"GC7E3V1","parsed":{"lat":32.703383,"lon":-17.062583,"type":"multi","name":"Levada Nova - Cafes"}},{"id":"GC480JF","parsed":{"lat":32.7,"lon":-17.1,"type":"mystery","name":"Teoria do Caos"}},{"id":"GC746AE","parsed":{"lat":32.7019,"lon":-17.083233,"type":"mystery","name":"Torre de Babel"}},{"id":"GC7E3TR","parsed":{"lat":32.699617,"lon":-17.06795,"type":"traditional","name":"Levada Nova - gavião"}},{"id":"GC42NX7","parsed":{"lat":32.693333,"lon":-17.118883,"type":"multi","name":"Trilhos dos nossos avós"}},{"id":"GC45DPX","parsed":{"lat":32.6939,"lon":-17.065083,"type":"mystery","name":"Terra / Earth"}},{"id":"GC40K1B","parsed":{"lat":32.692667,"lon":-17.1243,"type":"traditional","name":"Miradouro da Esperança"}},{"id":"GC7E3TC","parsed":{"lat":32.6908,"lon":-17.078083,"type":"traditional","name":"Levada Nova - falcão"}},{"id":"GC3X610","parsed":{"lat":32.691267,"lon":-17.048317,"type":"multi","name":"Centro Desportivo Da Madeira"}},{"id":"GC4126H","parsed":{"lat":32.690083,"lon":-17.11525,"type":"traditional","name":"Ponta do Sol Viewpoint"}},{"id":"GC2RG14","parsed":{"lat":32.6892,"lon":-17.0923,"type":"multi","name":"Levadas da Lombada"}},{"id":"GC3W0FB","parsed":{"lat":32.686683,"lon":-17.11395,"type":"traditional","name":"Rain"}},{"id":"GC73V2D","parsed":{"lat":32.684383,"lon":-17.0679,"type":"mystery","name":"Infinito"}},{"id":"GC6TKVK","parsed":{"lat":32.685317,"lon":-17.058,"type":"mystery","name":"Game Demo"}},{"id":"GC225KY","parsed":{"lat":32.681733,"lon":-17.108067,"type":"traditional","name":"Três caminhos"}},{"id":"GC41289","parsed":{"lat":32.683167,"lon":-17.091983,"type":"traditional","name":"Miradouro do Cascalho"}},{"id":"GC40K9F","parsed":{"lat":32.6816,"lon":-17.086683,"type":"traditional","name":"Palacete dos Zinos"}},{"id":"GC44K83","parsed":{"lat":32.679167,"lon":-17.055,"type":"mystery","name":"Em Busca de Sophie"}},{"id":"GC4NVDM","parsed":{"lat":32.67805,"lon":-17.104117,"type":"traditional","name":"The Pier"}},{"id":"GC3W322","parsed":{"lat":32.677483,"lon":-17.078133,"type":"traditional","name":"Capela da Conceição - Tabua"}},{"id":"GC45DPW","parsed":{"lat":32.67595,"lon":-17.046883,"type":"mystery","name":"Ar / Air"}},{"id":"GC5ATE3","parsed":{"lat":32.6724,"lon":-17.0637,"type":"wherigo","name":"Visconde da Ribeira Brava"}},{"id":"GC3KJ3J","parsed":{"lat":32.668367,"lon":-17.063133,"type":"mystery","name":"Stereogram"}},{"id":"GC45DQ0","parsed":{"lat":32.6589,"lon":-17.05245,"type":"mystery","name":"Água / Water"}},{"id":"GC2ZWP5","parsed":{"lat":32.835167,"lon":-16.906983,"type":"traditional","name":"Senhora da Pedra"}},{"id":"GC4EBXD","parsed":{"lat":32.8332,"lon":-16.924217,"type":"traditional","name":"Rocha de Baixo"}},{"id":"GC4YDMT","parsed":{"lat":32.829167,"lon":-16.960683,"type":"mystery","name":"The Treasure of Madeira"}},{"id":"GC4GWGY","parsed":{"lat":32.830856,"lon":-16.90152,"type":"traditional","name":"Cache do Fio "}},{"id":"GC3YZJ2","parsed":{"lat":32.82745,"lon":-16.977367,"type":"traditional","name":"\"Ponta Delgada View Point\""}},{"id":"GC38XQ6","parsed":{"lat":32.82875,"lon":-16.954733333333333,"type":"traditional","name":"Arco de São Jorge"}},{"id":"GC2Z1A2","parsed":{"lat":32.8284,"lon":-16.896217,"type":"traditional","name":"Vereda do Calhau"}},{"id":"GC2JCRK","parsed":{"lat":32.8255,"lon":-16.968683,"type":"traditional","name":"Blackbeards treasure \"is back\""}},{"id":"GC6ABT0","parsed":{"lat":32.825617,"lon":-16.937617,"type":"mystery","name":"Zoom IN"}},{"id":"GC2Y8C4","parsed":{"lat":32.824633,"lon":-16.884683,"type":"traditional","name":"Achada do Gramacho"}},{"id":"GC4YBH9","parsed":{"lat":32.82405,"lon":-16.954216666666667,"type":"traditional","name":"Na Rota do Vinho e das Vinhas"}},{"id":"GC41J8M","parsed":{"lat":32.822917,"lon":-16.93405,"type":"traditional","name":"Capela do Sagrado Coração de Jesus "}},{"id":"GC3YZJB","parsed":{"lat":32.818267,"lon":-17.0108,"type":"traditional","name":"\"North Coast View\""}},{"id":"GC6R5FC","parsed":{"lat":32.816183,"lon":-17.001217,"type":"traditional","name":"A Lombada"}},{"id":"GC2KRM8","parsed":{"lat":32.813517,"lon":-16.87505,"type":"traditional","name":"Rocha do Navio"}},{"id":"GC628K4","parsed":{"lat":32.812533,"lon":-17.002633,"type":"traditional","name":"PARQUE DE MERENDAS NA LOMBADA DA PONTA DELGADA"}},{"id":"GC4TR66","parsed":{"lat":32.81105,"lon":-16.911533,"type":"traditional","name":"ponchILHA!"}},{"id":"GC2Z19A","parsed":{"lat":32.8098,"lon":-16.952567,"type":"traditional","name":"Boca das Voltas"}},{"id":"GC2NEVJ","parsed":{"lat":32.81015,"lon":-16.933483,"type":"traditional","name":"Cascalho"}},{"id":"GC2NEVE","parsed":{"lat":32.806917,"lon":-16.940367,"type":"traditional","name":"Palheiro"}},{"id":"GC40B59","parsed":{"lat":32.805,"lon":-16.971533,"type":"multi","name":"Levada da Achada Grande"}},{"id":"GC6ZCWD","parsed":{"lat":32.80315,"lon":-16.99745,"type":"traditional","name":"Palheiro das Pulgas"}},{"id":"GC6ZCW8","parsed":{"lat":32.799183,"lon":-16.9986,"type":"traditional","name":"Poço das Pulgas"}},{"id":"GC2JCRB","parsed":{"lat":32.797517,"lon":-17.042367,"type":"earth","name":"The Sao Vincente Caves - As Grutas de Sao Vicente "}},{"id":"GC1FADM","parsed":{"lat":32.79735,"lon":-17.023117,"type":"traditional","name":"Caixa da Cal"}},{"id":"GC30BQN","parsed":{"lat":32.79695,"lon":-16.915583,"type":"traditional","name":"Green Bunker"}},{"id":"GC2P1G7","parsed":{"lat":32.796717,"lon":-17.03795,"type":"traditional","name":"Holy Cache"}},{"id":"GC2MNJC","parsed":{"lat":32.795133,"lon":-16.9373,"type":"traditional","name":"Ribeiro Bonito"}},{"id":"GC71KW9","parsed":{"lat":32.796483,"lon":-16.87265,"type":"traditional","name":"Aguage"}},{"id":"GC4C9GN","parsed":{"lat":32.791033,"lon":-17.01195,"type":"traditional","name":"Atreve-te a encontrar... / Dare to find..."}},{"id":"GC4Q1FW","parsed":{"lat":32.792133,"lon":-16.9657,"type":"traditional","name":"Endless view"}},{"id":"GC4Q8ZB","parsed":{"lat":32.791733,"lon":-16.958,"type":"traditional","name":"\"Water Slide\""}},{"id":"GC5XA47","parsed":{"lat":32.788967,"lon":-16.972233,"type":"traditional","name":"Lagoas da Ribeira do Porco"}},{"id":"GC341AD","parsed":{"lat":32.785717,"lon":-16.947283,"type":"mystery","name":"Encontro - Meeting Point"}},{"id":"GC4Q330","parsed":{"lat":32.785883,"lon":-16.925483,"type":"traditional","name":"Homem das cavernas"}},{"id":"GC3R11W","parsed":{"lat":32.787033,"lon":-16.919733,"type":"traditional","name":"Levada da Silveira - Old Tree"}},{"id":"GC3Y9M3","parsed":{"lat":32.782017,"lon":-16.96525,"type":"traditional","name":"Tentação"}},{"id":"GC34XWN","parsed":{"lat":32.780833,"lon":-16.934667,"type":"traditional","name":"Ribeira Grande"}},{"id":"GC5W1M6","parsed":{"lat":32.782583,"lon":-16.929683,"type":"traditional","name":"Ferrata"}},{"id":"GC4E1ZX","parsed":{"lat":32.779083,"lon":-16.921733,"type":"traditional","name":"Taborda"}},{"id":"GC2Y8C2","parsed":{"lat":32.7806,"lon":-16.907117,"type":"traditional","name":"Queimadas - Um caminho para todos"}},{"id":"GC32KFY","parsed":{"lat":32.777316666666664,"lon":-16.897666666666666,"type":"traditional","name":"Pico das Pedras"}},{"id":"GC46JDQ","parsed":{"lat":32.777833333333334,"lon":-16.87615,"type":"traditional","name":"Água de Alto"}},{"id":"GC35CFX","parsed":{"lat":32.77575,"lon":-16.985417,"type":"traditional","name":"Dos Tornos - O Início"}},{"id":"GC3R1NJ","parsed":{"lat":32.773133,"lon":-16.951133,"type":"traditional","name":"Pico Canário"}},{"id":"GC4CVEG","parsed":{"lat":32.773483,"lon":-16.94095,"type":"traditional","name":"O Caldeirão do João Ratão"}},{"id":"GC3RB90","parsed":{"lat":32.773666666666664,"lon":-16.935383333333334,"type":"traditional","name":"As Botas de Judas"}},{"id":"GC3J89R","parsed":{"lat":32.7695,"lon":-16.976117,"type":"traditional","name":"Urzal's Balcony"}},{"id":"GC5FPX6","parsed":{"lat":32.769883,"lon":-16.953917,"type":"traditional","name":"Yoga Time"}},{"id":"GC3RB5V","parsed":{"lat":32.770167,"lon":-16.946917,"type":"traditional","name":"Super Mário"}},{"id":"GC30BN5","parsed":{"lat":32.7701,"lon":-16.9307,"type":"traditional","name":"Descida Infernal"}},{"id":"GC30BMY","parsed":{"lat":32.770817,"lon":-16.907933,"type":"traditional","name":"Stone Peak"}},{"id":"GC30BQ3","parsed":{"lat":32.7668,"lon":-16.949533,"type":"traditional","name":"Canyon do Inferno"}},{"id":"GC4MK9C","parsed":{"lat":32.768917,"lon":-16.935083,"type":"traditional","name":"Into the Wild"}},{"id":"GC490AQ","parsed":{"lat":32.7663,"lon":-16.955433,"type":"traditional","name":"Pico do Milhafre"}},{"id":"GC5ECWP","parsed":{"lat":32.765067,"lon":-16.875283,"type":"traditional","name":"Museu da Família Teixeira e de Caires"}},{"id":"GC1DXZJ","parsed":{"lat":32.760983,"lon":-16.9376,"type":"traditional","name":"Pico Ruivo"}},{"id":"GC3VH25","parsed":{"lat":32.761467,"lon":-16.933467,"type":"traditional","name":"Vista para 3 Picos"}},{"id":"GC5CQVY","parsed":{"lat":32.761883,"lon":-16.907867,"type":"traditional","name":"Pico Chiqueiros da Queimada"}},{"id":"GC3T6FJ","parsed":{"lat":32.75995,"lon":-16.8762,"type":"traditional","name":"Cruzeiro - Cruzinhas"}},{"id":"GC4D1H2","parsed":{"lat":32.75785,"lon":-16.95595,"type":"traditional","name":"Madeira a Sorrir"}},{"id":"GC3VWGT","parsed":{"lat":32.759083,"lon":-16.942883,"type":"traditional","name":"1861"}},{"id":"GC3N4QM","parsed":{"lat":32.757517,"lon":-17.015883,"type":"multi","name":"Bailinho dos Louros"}},{"id":"GC1FG8H","parsed":{"lat":32.755733,"lon":-16.974167,"type":"traditional","name":"Pico do Jorge"}},{"id":"GC1EFF5","parsed":{"lat":32.763,"lon":-16.933833,"type":"traditional","name":"MORIA"}},{"id":"GC4VTKR","parsed":{"lat":32.7534,"lon":-17.019883,"type":"traditional","name":"Caminho Real"}},{"id":"GC6NH9A","parsed":{"lat":32.754683,"lon":-16.999633,"type":"mystery","name":"Game"}},{"id":"GC620JY","parsed":{"lat":32.754967,"lon":-16.98365,"type":"earth","name":"The Wall"}},{"id":"GC5JTJR","parsed":{"lat":32.754133,"lon":-16.979433,"type":"traditional","name":"Pico Casado"}},{"id":"GC673B7","parsed":{"lat":32.753083,"lon":-16.88315,"type":"traditional","name":"Tuneis das Cruzinhas"}},{"id":"GC36ZJH","parsed":{"lat":32.752417,"lon":-17.040917,"type":"traditional","name":"Wauwi's Leva"}},{"id":"GC57F8J","parsed":{"lat":32.7518,"lon":-17.0266,"type":"multi","name":"PR 17 - CAMINHO DO PINÁCULO E FOLHADAL"}},{"id":"GC5JJC3","parsed":{"lat":32.752533,"lon":-17.0158,"type":"traditional","name":"Pico Meio"}},{"id":"GC1J6X0","parsed":{"lat":32.7523,"lon":-16.989783,"type":"traditional","name":"Escadas"}},{"id":"GC3EJ5T","parsed":{"lat":32.748733,"lon":-16.930583,"type":"traditional","name":"Twin Peaks"}},{"id":"GC5F4P1","parsed":{"lat":32.750333,"lon":-16.904933,"type":"traditional","name":"After the tunnel"}},{"id":"GC3PKWN","parsed":{"lat":32.746483,"lon":-16.969017,"type":"traditional","name":"Half Way to Boca das Torrinhas"}},{"id":"GC673BF","parsed":{"lat":32.748233,"lon":-16.88585,"type":"traditional","name":"Levada das Cruzinhas"}},{"id":"GC5X2WY","parsed":{"lat":32.744367,"lon":-16.937167,"type":"traditional","name":"Vista a Ariero/View to Ariero/Blick zum Ariero"}},{"id":"GC3E1CH","parsed":{"lat":32.745933,"lon":-16.915667,"type":"traditional","name":"Oldest tree in Madeira"}},{"id":"GC4YP51","parsed":{"lat":32.7418,"lon":-17.017483,"type":"mystery","name":"Escudo & Euro"}},{"id":"GC76B7T","parsed":{"lat":32.7431,"lon":-17.010417,"type":"traditional","name":"Old Levada do Norte - Cascata"}},{"id":"GC5EQ27","parsed":{"lat":32.7423,"lon":-16.924067,"type":"traditional","name":"Levadas do Pico Ruivo e da Serra do Faial"}},{"id":"GC3E1CF","parsed":{"lat":32.743328,"lon":-16.90499,"type":"traditional","name":"Fajã da Nogueira"}},{"id":"GC2KDRD","parsed":{"lat":32.741483,"lon":-16.88955,"type":"traditional","name":"Balcões"}},{"id":"GC4E1G7","parsed":{"lat":32.741,"lon":-16.943967,"type":"traditional","name":"Pico Cidrão"}},{"id":"GC4EGAH","parsed":{"lat":32.739167,"lon":-16.936817,"type":"traditional","name":"Freira da Madeira"}},{"id":"GC5ET89","parsed":{"lat":32.73975,"lon":-16.9153,"type":"multi","name":"Levada do Juncal"}},{"id":"GC76B8A","parsed":{"lat":32.738133,"lon":-17.0117,"type":"traditional","name":"Old Levada do Norte - Túnel"}},{"id":"GC2H9AD","parsed":{"lat":32.737233,"lon":-16.987767,"type":"earth","name":"Pico Grande"}},{"id":"GC1DW8D","parsed":{"lat":32.737933,"lon":-16.932767,"type":"traditional","name":"Pico Arieiro"}},{"id":"GC6HB2E","parsed":{"lat":32.7358,"lon":-16.9287,"type":"earth","name":"Formas de Relevo / Landforms"}},{"id":"GC5D22K","parsed":{"lat":32.735733,"lon":-16.917017,"type":"traditional","name":"Caldeirão da Nogueira"}},{"id":"GC4098E","parsed":{"lat":32.732733,"lon":-17.000367,"type":"traditional","name":"Serra d´agua Viewpoint"}},{"id":"GC4A49A","parsed":{"lat":32.732133,"lon":-16.97735,"type":"traditional","name":"Jardim do Éden"}},{"id":"GC2HRJ0","parsed":{"lat":32.732583,"lon":-16.923533,"type":"traditional","name":"Arieiro - Ao lado do Pico"}},{"id":"GC40V29","parsed":{"lat":32.73345,"lon":-16.88775,"type":"traditional","name":"Posto Aquícola do Ribeiro Frio - Santana"}},{"id":"GC33RPY","parsed":{"lat":32.733167,"lon":-16.871783,"type":"traditional","name":"Poço do Bezerro"}},{"id":"GC5XY13","parsed":{"lat":32.73145,"lon":-16.957167,"type":"traditional","name":"Rocks of Cidrão."}},{"id":"GC76B8R","parsed":{"lat":32.727617,"lon":-17.005517,"type":"traditional","name":"Old Levada do Norte - Ribeira da Ameixieira"}},{"id":"GC3985N","parsed":{"lat":32.729,"lon":-16.903983,"type":"traditional","name":"Aventura Encantada"}},{"id":"GC2CHNN","parsed":{"lat":32.728717,"lon":-16.880633,"type":"traditional","name":"Urze"}},{"id":"GC3P6CG","parsed":{"lat":32.726433,"lon":-17.041467,"type":"traditional","name":"O Vigilante"}},{"id":"GC29Z69","parsed":{"lat":32.725433,"lon":-16.918117,"type":"traditional","name":"La Reunion View"}},{"id":"GC5MKE1","parsed":{"lat":32.7264,"lon":-16.886933,"type":"traditional","name":"O Aeromodelista"}},{"id":"GC48F56","parsed":{"lat":32.724583,"lon":-16.985767,"type":"traditional","name":"Caminho Real da Encumeada"}},{"id":"GC44YK6","parsed":{"lat":32.7222,"lon":-17.03005,"type":"mystery","name":"Fogo / Fire"}},{"id":"GC39BEH","parsed":{"lat":32.721767,"lon":-17.01535,"type":"traditional","name":"Fonte dos Burros"}},{"id":"GC66ED3","parsed":{"lat":32.72215,"lon":-16.912167,"type":"mystery","name":"BONUS | The Radio Tower V2 - '360'"}},{"id":"GC2RD4M","parsed":{"lat":32.720767,"lon":-16.8768,"type":"traditional","name":"O Pastor do Poiso"}},{"id":"GC5FC54","parsed":{"lat":32.7185,"lon":-16.9061,"type":"mystery","name":"Thesaurus"}},{"id":"GC39BEM","parsed":{"lat":32.7175,"lon":-16.999967,"type":"traditional","name":"Trompica"}},{"id":"GC48F2W","parsed":{"lat":32.7182,"lon":-16.9904,"type":"traditional","name":"Caminho Real da Encumeada - \"The Crossroad\""}},{"id":"GC6PJYK","parsed":{"lat":32.717667,"lon":-16.969183,"type":"earth","name":"Poço dos Chefes"}},{"id":"GC41AJ9","parsed":{"lat":32.71675,"lon":-16.9639,"type":"traditional","name":"A Castanha do Curral"}},{"id":"GC5J29K","parsed":{"lat":32.71405,"lon":-16.95475,"type":"traditional","name":"Miradouro do Paredão"}},{"id":"GC1QWRZ","parsed":{"lat":32.715383,"lon":-16.93315,"type":"traditional","name":"Levada da Negra"}},{"id":"GC593EP","parsed":{"lat":32.713817,"lon":-16.90405,"type":"traditional","name":"Ribeira das Cales"}},{"id":"GC44FC7","parsed":{"lat":32.7132,"lon":-17.0346,"type":"traditional","name":"A Poncha da Madeira"}},{"id":"GC450C1","parsed":{"lat":32.711567,"lon":-16.933333,"type":"traditional","name":"PT - KM Vertical #6"}},{"id":"GC2P0WC","parsed":{"lat":32.711583,"lon":-16.913683,"type":"traditional","name":"Parque Ecológico do Funchal"}},{"id":"GC6V04M","parsed":{"lat":32.712733,"lon":-16.8765,"type":"mystery","name":"Harry Potter: The Marauder's Map"}},{"id":"GC18PVZ","parsed":{"lat":32.710517,"lon":-16.986067,"type":"traditional","name":"Castanheiro"}},{"id":"GC5VYHX","parsed":{"lat":32.710267,"lon":-16.965683,"type":"traditional","name":"Miradouro Eira do Serrado"}},{"id":"GC3NDNP","parsed":{"lat":32.7073,"lon":-16.878583,"type":"multi","name":" A Casa do Cucu"}},{"id":"GC49VYE","parsed":{"lat":32.706383,"lon":-17.033183,"type":"traditional","name":"Monte Rochoso"}},{"id":"GC450BX","parsed":{"lat":32.706117,"lon":-16.935717,"type":"traditional","name":"PT - KM Vertical #5"}},{"id":"GC6GFTW","parsed":{"lat":32.704517,"lon":-16.92075,"type":"traditional","name":"Salto do Patagarro"}},{"id":"GC1JKX3","parsed":{"lat":32.702433,"lon":-17.03815,"type":"traditional","name":"Espigao - The Edge"}},{"id":"GC3YRTM","parsed":{"lat":32.70215,"lon":-16.93895,"type":"traditional","name":"Funchal Highlands"}},{"id":"GC2V0Q2","parsed":{"lat":32.703817,"lon":-16.888733,"type":"mystery","name":"Parque Florestal Montado do Pereiro"}},{"id":"GC61A6J","parsed":{"lat":32.699967,"lon":-17.010767,"type":"traditional","name":"Centro Comunitário Lugar da Serra"}},{"id":"GC5W5RD","parsed":{"lat":32.702033,"lon":-17.006017,"type":"traditional","name":"A Lenda do Bosque Encantado"}},{"id":"GC44V39","parsed":{"lat":32.700517,"lon":-16.910983,"type":"traditional","name":"Miradouro do Pisão"}},{"id":"GC4XN59","parsed":{"lat":32.698917,"lon":-17.040933,"type":"traditional","name":"Crista da Meia Légua"}},{"id":"GC6F6KQ","parsed":{"lat":32.698333,"lon":-16.904217,"type":"traditional","name":"The Seed - Plant Nursery"}},{"id":"GC3GP9X","parsed":{"lat":32.695867,"lon":-17.03485,"type":"multi","name":"Rota do Mourão"}},{"id":"GC3CHKH","parsed":{"lat":32.69575,"lon":-16.9787,"type":"traditional","name":"Boca dos Namorados"}},{"id":"GC4355Q","parsed":{"lat":32.6931,"lon":-17.0422,"type":"traditional","name":"Eira do Mourão 360º"}},{"id":"GC450BN","parsed":{"lat":32.694233,"lon":-16.937017,"type":"traditional","name":"PT - KM Vertical #3"}},{"id":"GC449T0","parsed":{"lat":32.694917,"lon":-16.91175,"type":"traditional","name":"Montado do Barreiro"}},{"id":"GC2P0TP","parsed":{"lat":32.692933,"lon":-16.9027,"type":"traditional","name":"Pico Alto 1129"}},{"id":"GC5W5GK","parsed":{"lat":32.691467,"lon":-17.00385,"type":"traditional","name":"Partilha"}},{"id":"GC3T7QN","parsed":{"lat":32.69215,"lon":-16.916017,"type":"traditional","name":"Centro Temático da Água"}},{"id":"GC4GRBH","parsed":{"lat":32.688533,"lon":-17.042117,"type":"traditional","name":"Levada do Norte"}},{"id":"GC69NAX","parsed":{"lat":32.69035,"lon":-16.947267,"type":"mystery","name":"Clues"}},{"id":"GC450BG","parsed":{"lat":32.688717,"lon":-16.940417,"type":"traditional","name":"PT - KM Vertical #2"}},{"id":"GC4167A","parsed":{"lat":32.68505,"lon":-17.044567,"type":"traditional","name":"After Burning"}},{"id":"GC450BE","parsed":{"lat":32.684317,"lon":-16.941417,"type":"traditional","name":"PT - KM Vertical #1"}},{"id":"GC2969Y","parsed":{"lat":32.684417,"lon":-16.8991,"type":"traditional","name":"Terreiro da Luta"}},{"id":"GC5VDQV","parsed":{"lat":32.6856,"lon":-16.873183,"type":"multi","name":"Moinho d'Água"}},{"id":"GC5CNDR","parsed":{"lat":32.683433,"lon":-17.0163,"type":"traditional","name":"Pedregal - Campanário"}},{"id":"GC69ETQ","parsed":{"lat":32.68165,"lon":-17.007867,"type":"traditional","name":"Fontainhas"}},{"id":"GC7338D","parsed":{"lat":32.6821,"lon":-16.9924,"type":"traditional","name":"Ribeira do Jardim"}},{"id":"GC6WKDX","parsed":{"lat":32.683417,"lon":-16.9694,"type":"traditional","name":"Fajã das Galinhas"}},{"id":"GC42JD1","parsed":{"lat":32.683583,"lon":-16.89415,"type":"traditional","name":"Surprise"}},{"id":"GC4XQF8","parsed":{"lat":32.6801,"lon":-16.938483,"type":"traditional","name":"Fireworks #6"}},{"id":"GC35PBN","parsed":{"lat":32.680333,"lon":-16.890417,"type":"traditional","name":"Curral dos Romeiros"}},{"id":"GC446DT","parsed":{"lat":32.677533,"lon":-17.040833,"type":"traditional","name":"Pulls"}},{"id":"GC6WFBA","parsed":{"lat":32.677733,"lon":-16.964333,"type":"traditional","name":"Rocha Alta"}},{"id":"GC4YGVD","parsed":{"lat":32.678333,"lon":-16.946067,"type":"traditional","name":"Trapiche"}},{"id":"GC66H8Q","parsed":{"lat":32.674617,"lon":-17.0059,"type":"traditional","name":"Paragem \"Técnica\"!"}},{"id":"GC407WH","parsed":{"lat":32.675417,"lon":-16.9914,"type":"traditional","name":"Garachico - Ribeira do Inferno"}},{"id":"GC58CCW","parsed":{"lat":32.6745,"lon":-16.908417,"type":"mystery","name":"Jardins do Imperador"}},{"id":"GC3MY27","parsed":{"lat":32.673183,"lon":-17.033433,"type":"traditional","name":"Campanário de lés a lés"}},{"id":"GC5QK1D","parsed":{"lat":32.67205,"lon":-17.029367,"type":"wherigo","name":"Escadas com Arte / Stairs With Art"}},{"id":"GC3J4XQ","parsed":{"lat":32.67265,"lon":-16.9044,"type":"traditional","name":"So you think you are in england?!?!"}},{"id":"GC3MKRM","parsed":{"lat":32.67325,"lon":-16.890817,"type":"mystery","name":"Informática"}},{"id":"GC3K3TE","parsed":{"lat":32.67045,"lon":-16.90845,"type":"traditional","name":"Marmeleiros View"}},{"id":"GC5QNNV","parsed":{"lat":32.671883,"lon":-16.882,"type":"traditional","name":"Vamos à bola"}},{"id":"GC3BA74","parsed":{"lat":32.671,"lon":-16.875,"type":"traditional","name":"#1 - Casa de Partida - Power Bike Trail"}},{"id":"GC72Y24","parsed":{"lat":32.669517,"lon":-16.973483,"type":"traditional","name":"Capela das Almas"}},{"id":"GC5BZ3G","parsed":{"lat":32.668083,"lon":-16.91545,"type":"multi","name":"Livramento"}},{"id":"GC6EJZK","parsed":{"lat":32.667,"lon":-17.0393,"type":"traditional","name":"Nossa Senhora do Bom Despacho"}},{"id":"GC5AB79","parsed":{"lat":32.665583,"lon":-17.02405,"type":"traditional","name":"Vera Cruz - Campanário"}},{"id":"GC3844G","parsed":{"lat":32.666333,"lon":-16.93305,"type":"mystery","name":"Biblioteca Pública Regional"}},{"id":"GC69HNG","parsed":{"lat":32.66685,"lon":-16.903267,"type":"mystery","name":"Quinas"}},{"id":"GC7A2TY","parsed":{"lat":32.663,"lon":-16.986617,"type":"traditional","name":"Pico Madeira"}},{"id":"GC675R2","parsed":{"lat":32.664883,"lon":-16.976633,"type":"traditional","name":"A antiga Escola do Salão"}},{"id":"GC69ZEP","parsed":{"lat":32.66425,"lon":-16.947167,"type":"mystery","name":"Sinal Wow!"}},{"id":"GC2RQYM","parsed":{"lat":32.664517,"lon":-16.900283,"type":"traditional","name":"Tabaiba"}},{"id":"GC6PCY7","parsed":{"lat":32.661983,"lon":-17.038067,"type":"traditional","name":"Calhau da Lapa"}},{"id":"GC6A0RK","parsed":{"lat":32.66235,"lon":-17.0118,"type":"multi","name":"Igreja da Quinta Grande"}},{"id":"GC7CRR9","parsed":{"lat":32.66105,"lon":-16.92955,"type":"traditional","name":"Local de lazer da penteada "}},{"id":"GC4THZQ","parsed":{"lat":32.661947,"lon":-16.906842,"type":"traditional","name":"Por baixo da Ponte"}},{"id":"GC531NZ","parsed":{"lat":32.658533,"lon":-17.027833,"type":"traditional","name":"Fajã dos Padres"}},{"id":"GC5V7FH","parsed":{"lat":32.659817,"lon":-17.0042,"type":"traditional","name":"Capela de Nossa Senhora de Fátima"}},{"id":"GC466FY","parsed":{"lat":32.658767,"lon":-16.960667,"type":"traditional","name":"Ribeira dos Socorridos"}},{"id":"GC2JMK6","parsed":{"lat":32.658867,"lon":-16.939417,"type":"traditional","name":"Miradouro do Pico dos Barcelos"}},{"id":"GC3BQCT","parsed":{"lat":32.66,"lon":-16.874583,"type":"traditional","name":"Miradouro Lombo da Quinta"}},{"id":"GC3Q8Y7","parsed":{"lat":32.656967,"lon":-17.0215,"type":"traditional","name":"Miradouro da Fajã dos Padres"}},{"id":"GC70M4N","parsed":{"lat":32.657767,"lon":-16.970883,"type":"mystery","name":"Correio Eletrónico"}},{"id":"GC709VV","parsed":{"lat":32.656417,"lon":-16.942817,"type":"traditional","name":"CARPEDIEM"}},{"id":"GC628EV","parsed":{"lat":32.657283,"lon":-16.927633,"type":"multi","name":"Porco das Madalenas"}},{"id":"GC2DXDW","parsed":{"lat":32.657383,"lon":-16.919667,"type":"traditional","name":"Miradouro da Achada"}},{"id":"GC7EXPC","parsed":{"lat":32.65656666666667,"lon":-16.913966666666667,"type":"traditional","name":"Passeando os cães"}},{"id":"GC74A0W","parsed":{"lat":32.657883,"lon":-16.887533,"type":"traditional","name":"Varanda pro Funchal"}},{"id":"GC40WZ2","parsed":{"lat":32.655817,"lon":-17.008483,"type":"traditional","name":"Dobrando o Cabo"}},{"id":"GC5R6N2","parsed":{"lat":32.65405,"lon":-16.878733,"type":"traditional","name":"Rebuçados de Funcho"}},{"id":"GC7D7EN","parsed":{"lat":32.651383,"lon":-16.993533,"type":"multi","name":"Fajã do Cabo Girão"}},{"id":"GC689TZ","parsed":{"lat":32.652067,"lon":-16.973467,"type":"traditional","name":"Pico da Torre"}},{"id":"GC5FBK4","parsed":{"lat":32.6531,"lon":-16.96705,"type":"multi","name":"Capela de Nossa Senhora da Boa Hora"}},{"id":"GC6FTH5","parsed":{"lat":32.651667,"lon":-16.953333,"type":"multi","name":"Igreja de Santa Rita"}},{"id":"GC40N09","parsed":{"lat":32.65325,"lon":-16.939683,"type":"traditional","name":"GAG2"}},{"id":"GC4BVXZ","parsed":{"lat":32.653383,"lon":-16.929317,"type":"multi","name":"REVOLUÇAO DA FARINHA "}},{"id":"GC70NG6","parsed":{"lat":32.64895,"lon":-16.9783,"type":"multi","name":"O Coreto"}},{"id":"GC4BVRK","parsed":{"lat":32.65,"lon":-16.9345,"type":"traditional","name":"AVISTA NAVIOS"}},{"id":"GC5FVBM","parsed":{"lat":32.650317,"lon":-16.910867,"type":"mystery","name":"Display de 7 segmentos (7-segment display)"}},{"id":"GC57676","parsed":{"lat":32.65065,"lon":-16.893,"type":"multi","name":"Casinhas de Prazer"}},{"id":"GC7AV27","parsed":{"lat":32.649833,"lon":-16.873983,"type":"traditional","name":"Miradouro das Neves"}},{"id":"GC4V4Z5","parsed":{"lat":32.647922,"lon":-16.923542,"type":"traditional","name":"HOSPITAL"}},{"id":"GC12RXH","parsed":{"lat":32.6469,"lon":-16.9075,"type":"multi","name":"Funchal Walkabout"}},{"id":"GC2RZFG","parsed":{"lat":32.646967,"lon":-16.8978,"type":"traditional","name":"Socorro"}},{"id":"GC4FN2J","parsed":{"lat":32.647083,"lon":-16.889983,"type":"mystery","name":"Será que estou a ver correctamente?"}},{"id":"GC5X4MX","parsed":{"lat":32.64635,"lon":-16.951617,"type":"traditional","name":"Poios de Hialoclastitos"}},{"id":"GC40D66","parsed":{"lat":32.646417,"lon":-16.937433,"type":"traditional","name":"Mata da Nazaré"}},{"id":"GC2JETJ","parsed":{"lat":32.644867,"lon":-16.917583,"type":"traditional","name":"Oscar Ribeiro de Almeida de Niemeyer"}},{"id":"GC55G39","parsed":{"lat":32.64655,"lon":-16.913217,"type":"multi","name":"Madeira-Porto Santo"}},{"id":"GC68JW6","parsed":{"lat":32.646283,"lon":-16.873017,"type":"traditional","name":"A Lenda da Noite de S. Silvestre"}},{"id":"GC534FH","parsed":{"lat":32.64315,"lon":-16.96465,"type":"earth","name":"Giant's Causeway in Madeira Island?"}},{"id":"GC67M2A","parsed":{"lat":32.642333,"lon":-16.955817,"type":"traditional","name":"Praia Formosa"}},{"id":"GC2MP6F","parsed":{"lat":32.644283,"lon":-16.945667,"type":"traditional","name":"Jardim do Amparo"}},{"id":"GC4T2NQ","parsed":{"lat":32.640717,"lon":-16.935767,"type":"traditional","name":"First cache in Madeira"}},{"id":"GC46ZVA","parsed":{"lat":32.641333,"lon":-16.9135,"type":"traditional","name":"Welcome to the Pearl of the Atlantic"}},{"id":"GC6EWVT","parsed":{"lat":32.641933,"lon":-16.9069,"type":"mystery","name":"Souvenirs Collector Challenge"}},{"id":"GC55C7V","parsed":{"lat":32.639117,"lon":-16.950633,"type":"multi","name":"Elucidando II: Saque dos Franceses"}},{"id":"GC6F45H","parsed":{"lat":32.638083,"lon":-16.931667,"type":"multi","name":"Ciclovia do Funchal "}},{"id":"GC2RXYM","parsed":{"lat":32.636433,"lon":-16.936233,"type":"traditional","name":"Cais do Carvão / Coal Pier"}},{"id":"GC5BERQ","parsed":{"lat":32.636,"lon":-16.928333,"type":"mystery","name":"Códigos Secretos"}},{"id":"GC2M8GK","parsed":{"lat":32.633617,"lon":-16.943517,"type":"traditional","name":"Ponta da Cruz"}},{"id":"GC425J1","parsed":{"lat":32.633333,"lon":-16.933333,"type":"mystery","name":"Lenda de São Martinho"}},{"id":"GC4KCQX","parsed":{"lat":32.80795,"lon":-16.86805,"type":"traditional","name":"Miradouro do Pico Caldeira"}},{"id":"GC2Y898","parsed":{"lat":32.806867,"lon":-16.856733,"type":"traditional","name":"Ponta do Clérigo"}},{"id":"GC5FD3M","parsed":{"lat":32.802767,"lon":-16.859367,"type":"traditional","name":"Cais e Marina do Faial"}},{"id":"GC4VEGR","parsed":{"lat":32.801283,"lon":-16.866533,"type":"traditional","name":"Santana 2014"}},{"id":"GC56G06","parsed":{"lat":32.79055,"lon":-16.860167,"type":"traditional","name":"Miradouro Nossa Senhora do Bom Caminho!"}},{"id":"GC2ZMDT","parsed":{"lat":32.792067,"lon":-16.850817,"type":"earth","name":"Faial Prismático"}},{"id":"GC49YNP","parsed":{"lat":32.788717,"lon":-16.849983,"type":"mystery","name":"\"Pit Stop\""}},{"id":"GC3P92Q","parsed":{"lat":32.784883,"lon":-16.852083,"type":"traditional","name":"Chão do Pico"}},{"id":"GC225TN","parsed":{"lat":32.777183,"lon":-16.838,"type":"traditional","name":"Penha de Águia"}},{"id":"GC4W28X","parsed":{"lat":32.776417,"lon":-16.83205,"type":"traditional","name":"Banda das Lapas"}},{"id":"GC493R0","parsed":{"lat":32.775017,"lon":-16.84855,"type":"traditional","name":"CHÃO DA RIBEIRA - SÃO ROQUE DO FAIAL "}},{"id":"GC79K5D","parsed":{"lat":32.775017,"lon":-16.82705,"type":"earth","name":"Estratos e Estratificação"}},{"id":"GC2ZFP6","parsed":{"lat":32.7717,"lon":-16.828433,"type":"multi","name":"Porto da Cruz"}},{"id":"GC2ZF0Z","parsed":{"lat":32.7677,"lon":-16.81645,"type":"traditional","name":"Larano - Boqueirão"}},{"id":"GC37NYR","parsed":{"lat":32.76485,"lon":-16.84415,"type":"multi","name":"Ribeira Tem-Te-Não-Caias"}},{"id":"GC3M76D","parsed":{"lat":32.76635,"lon":-16.820683,"type":"traditional","name":"O Curral"}},{"id":"GC6GQGW","parsed":{"lat":32.7637,"lon":-16.854167,"type":"traditional","name":"Levada do Castelejo (Terra Batista - Lombo Grande)"}},{"id":"GC2Y8C7","parsed":{"lat":32.762767,"lon":-16.789017,"type":"traditional","name":"The Dragon's Tail"}},{"id":"GC4MV02","parsed":{"lat":32.76165,"lon":-16.8483,"type":"traditional","name":"Do Suna ao Batista - Pombo Trocaz"}},{"id":"GC5G5XM","parsed":{"lat":32.760733,"lon":-16.833833,"type":"traditional","name":"Capela da Referta"}},{"id":"GC5CY8V","parsed":{"lat":32.760567,"lon":-16.802667,"type":"traditional","name":"O Inspector Pardal"}},{"id":"GC4R6GD","parsed":{"lat":32.756567,"lon":-16.84915,"type":"traditional","name":"Do Suna ao Batista - Pardal da Terra"}},{"id":"GC2Y88M","parsed":{"lat":32.755667,"lon":-16.798867,"type":"traditional","name":"Funduras"}},{"id":"GC5RKBG","parsed":{"lat":32.755883,"lon":-16.791733,"type":"traditional","name":"Geocaching: Como tudo começou"}},{"id":"GC5JNJ5","parsed":{"lat":32.75373333333334,"lon":-16.757016666666665,"type":"traditional","name":"Caniçal Trail – Ribeiros #Stage7"}},{"id":"GC3MH1J","parsed":{"lat":32.754167,"lon":-16.7485,"type":"multi","name":"The Cliffs"}},{"id":"GC5JNG3","parsed":{"lat":32.753483,"lon":-16.744183,"type":"traditional","name":"Caniçal Trail – Barreiras  # Stage4"}},{"id":"GC38XQD","parsed":{"lat":32.751733,"lon":-16.868417,"type":"traditional","name":"Cedro Gordo"}},{"id":"GC4R6J1","parsed":{"lat":32.752183,"lon":-16.8498,"type":"traditional","name":"Do Suna ao Batista - Melro Preto"}},{"id":"GC20QX5","parsed":{"lat":32.752,"lon":-16.795,"type":"traditional","name":"Mario 36 Caixa Lorano"}},{"id":"GC7658Z","parsed":{"lat":32.750617,"lon":-16.708967,"type":"traditional","name":"THE PYRAMID"}},{"id":"GC37NRV","parsed":{"lat":32.75015,"lon":-16.835083,"type":"traditional","name":"Porto da Cruz Viewpoint"}},{"id":"GC54EGV","parsed":{"lat":32.7485,"lon":-16.795483,"type":"traditional","name":"CASA DAS FUNDURAS"}},{"id":"GC7C4R7","parsed":{"lat":32.748833,"lon":-16.780317,"type":"traditional","name":"A Espera..."}},{"id":"GC46D4Y","parsed":{"lat":32.749067,"lon":-16.77375,"type":"mystery","name":"A aventura dos três amigos"}},{"id":"GC5JNEX","parsed":{"lat":32.750467,"lon":-16.748117,"type":"traditional","name":"Caniçal Trail – Casa da Bica #Stage3"}},{"id":"GC3N3YK","parsed":{"lat":32.7504,"lon":-16.739783,"type":"traditional","name":"Monumentos Geológicos"}},{"id":"GC5KAFQ","parsed":{"lat":32.7505,"lon":-16.728133,"type":"traditional","name":"Rádio marconi"}},{"id":"GC5JNE5","parsed":{"lat":32.747,"lon":-16.7497,"type":"traditional","name":"Caniçal Trail – Entre aguas #Stage2"}},{"id":"GC5KAJR","parsed":{"lat":32.746452,"lon":-16.726555,"type":"traditional","name":"Vigia da Baleia"}},{"id":"GC5YMQE","parsed":{"lat":32.74715,"lon":-16.716317,"type":"earth","name":"Esculturas Naturais"}},{"id":"GC44RQE","parsed":{"lat":32.747867,"lon":-16.700583,"type":"traditional","name":"LOBO MARINHO à vista"}},{"id":"GC4WGKR","parsed":{"lat":32.74765,"lon":-16.696633,"type":"traditional","name":"Praia da Baia d'Abra"}},{"id":"GC28J6W","parsed":{"lat":32.74385,"lon":-16.86195,"type":"traditional","name":"Jungle of Madeira"}},{"id":"GC4R891","parsed":{"lat":32.745733,"lon":-16.763433,"type":"traditional","name":"Coelho em fuga"}},{"id":"GC5K269","parsed":{"lat":32.745567,"lon":-16.755767,"type":"traditional","name":"Caniçal Trail – loural #Stage9"}},{"id":"GC5RJ3N","parsed":{"lat":32.7441,"lon":-16.7208,"type":"earth","name":"Camadas Geológicas"}},{"id":"GC5KQAP","parsed":{"lat":32.744333,"lon":-16.706867,"type":"traditional","name":"Dragão vermelho"}},{"id":"GC4MRWW","parsed":{"lat":32.7435,"lon":-16.85385,"type":"traditional","name":" Abrigo do Bis Bis"}},{"id":"GC3BA7R","parsed":{"lat":32.743333,"lon":-16.841667,"type":"mystery","name":"#17 - Bónus - Power Bike Trail"}},{"id":"GC55TM4","parsed":{"lat":32.742517,"lon":-16.740367,"type":"traditional","name":"Parede de Babosas"}},{"id":"GC48K2X","parsed":{"lat":32.742,"lon":-16.713,"type":"earth","name":"Cone de Piroclastos da Senhora da Piedade"}},{"id":"GC2N76Q","parsed":{"lat":32.742533333333334,"lon":-16.699633333333335,"type":"traditional","name":"Caniçal"}},{"id":"GC6GQJ7","parsed":{"lat":32.740633,"lon":-16.861733,"type":"traditional","name":"Cascata da Pedra Rachada"}},{"id":"GC5BF4W","parsed":{"lat":32.739283,"lon":-16.852117,"type":"traditional","name":"Tuneis Naturais"}},{"id":"GC39KJR","parsed":{"lat":32.7394,"lon":-16.84705,"type":"traditional","name":"#16 - Stop - Power Bike Trail "}},{"id":"GC3W7KA","parsed":{"lat":32.739833,"lon":-16.836133,"type":"traditional","name":"Pai Roque"}},{"id":"GC4RRDG","parsed":{"lat":32.74025,"lon":-16.765717,"type":"traditional","name":"Machico from the valley to the mountain"}},{"id":"GC5JR6Y","parsed":{"lat":32.739233,"lon":-16.751183,"type":"traditional","name":"Caniçal Trail – Frente ao sol #Stage1"}},{"id":"GC69C2V","parsed":{"lat":32.7408,"lon":-16.7281,"type":"traditional","name":"Zona Franca Industrial"}},{"id":"GC6MFJF","parsed":{"lat":32.739183,"lon":-16.722433,"type":"mystery","name":"#PT Âncora8"}},{"id":"GC44V3W","parsed":{"lat":32.7412,"lon":-16.705067,"type":"traditional","name":"Vista para a Quinta do Lorde"}},{"id":"GC77Z7T","parsed":{"lat":32.7368,"lon":-16.8189,"type":"traditional","name":"The Lumberjacks"}},{"id":"GC5JRHA","parsed":{"lat":32.73725,"lon":-16.744717,"type":"mystery","name":" #10 - BÓNUS - Caniçal lorosae"}},{"id":"GC4P7GG","parsed":{"lat":32.7353,"lon":-16.865483,"type":"traditional","name":"Levada do Furado"}},{"id":"GC47QMX","parsed":{"lat":32.735783,"lon":-16.853967,"type":"multi","name":"PICO DO SUNA"}},{"id":"GC2G0BK","parsed":{"lat":32.734783,"lon":-16.793,"type":"earth","name":"Natural Wonder"}},{"id":"GC4NM4R","parsed":{"lat":32.736467,"lon":-16.78245,"type":"traditional","name":"Machim"}},{"id":"GC430TM","parsed":{"lat":32.736617,"lon":-16.764183,"type":"mystery","name":"GPS Signal"}},{"id":"GC7E5Z3","parsed":{"lat":32.73533333333334,"lon":-16.757583333333333,"type":"traditional","name":"003 - Duque's Legatum"}},{"id":"GC4NNVV","parsed":{"lat":32.735367,"lon":-16.750217,"type":"traditional","name":"Top of the World"}},{"id":"GC7876W","parsed":{"lat":32.736233,"lon":-16.740683,"type":"wherigo","name":"Espécies em vias de extinção"}},{"id":"GC6MFHM","parsed":{"lat":32.736225,"lon":-16.720017,"type":"mystery","name":"#PT Âncora5"}},{"id":"GC6MFKD","parsed":{"lat":32.735028,"lon":-16.714389,"type":"mystery","name":"#PT Âncora13"}},{"id":"GC45EEB","parsed":{"lat":32.733933,"lon":-16.800567,"type":"mystery","name":"Capela das Preces"}},{"id":"GC3WR71","parsed":{"lat":32.732333,"lon":-16.7848,"type":"traditional","name":"Furnas do Cavalum"}},{"id":"GC6MFJX","parsed":{"lat":32.732231,"lon":-16.720953,"type":"mystery","name":"#PT Âncora10"}},{"id":"GC709ZD","parsed":{"lat":32.7317,"lon":-16.86715,"type":"traditional","name":"Mystic Places"}},{"id":"GC62YC9","parsed":{"lat":32.731383,"lon":-16.837467,"type":"traditional","name":"# 01 – T.A.M.I.  -  S T A R T"}},{"id":"GC4N4P1","parsed":{"lat":32.730083,"lon":-16.769317,"type":"traditional","name":"Machico in sight"}},{"id":"GC6MFKW","parsed":{"lat":32.731933,"lon":-16.71635,"type":"mystery","name":"#PT Âncora15"}},{"id":"GC4C4HQ","parsed":{"lat":32.728083,"lon":-16.7609,"type":"earth","name":"A Pedreira"}},{"id":"GC4RZVZ","parsed":{"lat":32.728367,"lon":-16.7523,"type":"traditional","name":"Vereda do Facho - Ribeira Natal"}},{"id":"GC6MFX2","parsed":{"lat":32.72755,"lon":-16.7136,"type":"mystery","name":"#PT Âncora18"}},{"id":"GC6MNVX","parsed":{"lat":32.729233,"lon":-16.70775,"type":"mystery","name":"#PT Âncora31"}},{"id":"GC3B8AQ","parsed":{"lat":32.7259,"lon":-16.83995,"type":"traditional","name":"#14 - Toca - Power Bike Trail "}},{"id":"GC6NVWF","parsed":{"lat":32.72605,"lon":-16.827667,"type":"traditional","name":"SANTO DA SERRA"}},{"id":"GC46HNG","parsed":{"lat":32.7275,"lon":-16.8012,"type":"mystery","name":"Poção Mágica"}},{"id":"GC4MNPP","parsed":{"lat":32.725883,"lon":-16.786933,"type":"traditional","name":"PICO BALSEIRA"}},{"id":"GC6MNVM","parsed":{"lat":32.725517,"lon":-16.710333,"type":"mystery","name":"#PT Âncora28"}},{"id":"GC4YHKW","parsed":{"lat":32.723967,"lon":-16.8205,"type":"traditional","name":"Fonte dos Ingleses"}},{"id":"GC7DMH1","parsed":{"lat":32.7233,"lon":-16.770333,"type":"traditional","name":"001 - Duque's Legatum"}},{"id":"GC70VJ8","parsed":{"lat":32.723567,"lon":-16.757583,"type":"earth","name":"Machico Breccia "}},{"id":"GC6MFYG","parsed":{"lat":32.723367,"lon":-16.7202,"type":"mystery","name":"#PT Âncora21"}},{"id":"GC6MNV8","parsed":{"lat":32.723983,"lon":-16.715317,"type":"mystery","name":"#PT Âncora25"}},{"id":"GC3VB5P","parsed":{"lat":32.7206,"lon":-16.864683,"type":"traditional","name":"Geodésico  João do Prado"}},{"id":"GC44VHN","parsed":{"lat":32.7224,"lon":-16.85955,"type":"traditional","name":"Pandora's box"}},{"id":"GC47YB7","parsed":{"lat":32.72285,"lon":-16.84195,"type":"traditional","name":"OFF-ROAD"}},{"id":"GC44E8M","parsed":{"lat":32.722883,"lon":-16.781667,"type":"traditional","name":"O Rochedo / The Rock"}},{"id":"GC3NRWR","parsed":{"lat":32.7209,"lon":-16.762367,"type":"traditional","name":"Miradouro dos milagres"}},{"id":"GC3NCT9","parsed":{"lat":32.718633,"lon":-16.868283,"type":"traditional","name":"Terreiros - Poiso"}},{"id":"GC6HB33","parsed":{"lat":32.718667,"lon":-16.765967,"type":"traditional","name":"Igreja Paroquial de Machico"}},{"id":"GC4H2BY","parsed":{"lat":32.72005,"lon":-16.75625,"type":"traditional","name":"Journey into the unknown..."}},{"id":"GC4QBW1","parsed":{"lat":32.717683,"lon":-16.850167,"type":"traditional","name":"Cogumelo Mágico"}},{"id":"GC3N1VY","parsed":{"lat":32.716717,"lon":-16.84555,"type":"traditional","name":"Bosque Verdejante"}},{"id":"GC41BC1","parsed":{"lat":32.717233,"lon":-16.806817,"type":"traditional","name":"Lagoa do Santo da Serra"}},{"id":"GC74Q17","parsed":{"lat":32.7171,"lon":-16.760317,"type":"mystery","name":"Hans Christian Andersen "}},{"id":"GC4ZT3G","parsed":{"lat":32.713867,"lon":-16.82445,"type":"traditional","name":"Nascente Acioly"}},{"id":"GC72QMJ","parsed":{"lat":32.715617,"lon":-16.819033,"type":"traditional","name":"Twin Waterfalls"}},{"id":"GC2PZ8Q","parsed":{"lat":32.715433,"lon":-16.773,"type":"traditional","name":"Machico 239 - Portelinha"}},{"id":"GC3B8AP","parsed":{"lat":32.713517,"lon":-16.835933,"type":"traditional","name":"#13 - Cheirosa - Power Bike Trail "}},{"id":"GC3NK9B","parsed":{"lat":32.7122,"lon":-16.8164,"type":"traditional","name":"cascata madre d'agua"}},{"id":"GC6Z4Y8","parsed":{"lat":32.712233,"lon":-16.802467,"type":"traditional","name":"The old \"til\""}},{"id":"GC5RKB6","parsed":{"lat":32.712233,"lon":-16.762267,"type":"traditional","name":"Tristão Vaz Teixeira"}},{"id":"GC3B8AE","parsed":{"lat":32.708867,"lon":-16.842717,"type":"traditional","name":"#11 - Túnel - Power Bike Trail "}},{"id":"GC65FC3","parsed":{"lat":32.707067,"lon":-16.823733,"type":"traditional","name":"O Rubi"}},{"id":"GC2ME03","parsed":{"lat":32.708867,"lon":-16.763567,"type":"traditional","name":"Atlantis"}},{"id":"GC6Z4Z0","parsed":{"lat":32.704783,"lon":-16.8025,"type":"traditional","name":"Casinha da Luz"}},{"id":"GC5Z37T","parsed":{"lat":32.704567,"lon":-16.765583,"type":"traditional","name":"Mantem-te em forma"}},{"id":"GC5MHPT","parsed":{"lat":32.703733,"lon":-16.816367,"type":"traditional","name":"Pomar Batista"}},{"id":"GC620P6","parsed":{"lat":32.703867,"lon":-16.769917,"type":"traditional","name":"Vem observar os magníficos do ar"}},{"id":"GC6EM24","parsed":{"lat":32.7012,"lon":-16.8477,"type":"traditional","name":"Lagoa das Águas Mansas"}},{"id":"GC6C9AB","parsed":{"lat":32.70145,"lon":-16.785217,"type":"traditional","name":"Rewind"}},{"id":"GC3B8A3","parsed":{"lat":32.6974,"lon":-16.848783,"type":"traditional","name":"#9 - Ponte R. Serrão - Power Bike Trail "}},{"id":"GC4MK35","parsed":{"lat":32.696417,"lon":-16.784883,"type":"traditional","name":"Santinha da Rua Nova Do Janeiro"}},{"id":"GC7027A","parsed":{"lat":32.69685,"lon":-16.778283,"type":"traditional","name":"Até já Madeira!"}},{"id":"GC5F7Z6","parsed":{"lat":32.694917,"lon":-16.77315,"type":"traditional","name":"À espera para Embarque"}},{"id":"GC3Q6AT","parsed":{"lat":32.692517,"lon":-16.8078,"type":"traditional","name":"Vale de Santa Cruz"}},{"id":"GC3KZFW","parsed":{"lat":32.690667,"lon":-16.77345,"type":"traditional","name":"Tens Coragem?"}},{"id":"GC4V3YN","parsed":{"lat":32.68865,"lon":-16.831,"type":"traditional","name":"CR7"}},{"id":"GC3MTEW","parsed":{"lat":32.689317,"lon":-16.790667,"type":"traditional","name":"jardim do tribunal"}},{"id":"GC673WX","parsed":{"lat":32.688467,"lon":-16.786133,"type":"traditional","name":"TP 425"}},{"id":"GC4RW0D","parsed":{"lat":32.6894,"lon":-16.7819,"type":"traditional","name":"Santa Cruz - Porto de Recreio"}},{"id":"GC3B5CM","parsed":{"lat":32.687583,"lon":-16.857167,"type":"traditional","name":"#8 - Ribeirinho - Power Bike Trail"}},{"id":"GC58EX9","parsed":{"lat":32.68635,"lon":-16.841617,"type":"traditional","name":"Palheiro dos Tornos"}},{"id":"GC2C86G","parsed":{"lat":32.68635,"lon":-16.826833,"type":"multi","name":"Aventura dos Tornos"}},{"id":"GC46A3E","parsed":{"lat":32.686817,"lon":-16.7941,"type":"traditional","name":"Bombeiros os Soldados da Paz"}},{"id":"GC7AC21","parsed":{"lat":32.688133,"lon":-16.766667,"type":"mystery","name":"F.C Barcelona"}},{"id":"GC4AEAN","parsed":{"lat":32.684283,"lon":-16.851667,"type":"traditional","name":"O Mineiro"}},{"id":"GC51XFP","parsed":{"lat":32.683917,"lon":-16.806233,"type":"traditional","name":"Cabeço da Areia"}},{"id":"GC335HF","parsed":{"lat":32.6828,"lon":-16.816883,"type":"traditional","name":"Serra de Gaula"}},{"id":"GC5KJ74","parsed":{"lat":32.682367,"lon":-16.7961,"type":"multi","name":"Capela de São Pedro"}},{"id":"GC3BA69","parsed":{"lat":32.6796,"lon":-16.861383,"type":"traditional","name":"#5 - Rocha 111 - Power Bike Trail"}},{"id":"GC33Q5B","parsed":{"lat":32.67945,"lon":-16.838033,"type":"traditional","name":"Tesouro dos Salgados"}},{"id":"GC6MTK4","parsed":{"lat":32.679267,"lon":-16.80795,"type":"multi","name":"Solares de Gaula"}},{"id":"GC3BA6E","parsed":{"lat":32.678217,"lon":-16.865633,"type":"traditional","name":"#4 - Levadas que se cruzam - Power Bike Trail"}},{"id":"GC25YNV","parsed":{"lat":32.674767,"lon":-16.801517,"type":"traditional","name":"Praia das Fontes"}},{"id":"GC3BA71","parsed":{"lat":32.67405,"lon":-16.869183,"type":"traditional","name":"#2 - Jump! - Power Bike Trail"}},{"id":"GC3BA6T","parsed":{"lat":32.67245,"lon":-16.86355,"type":"traditional","name":"#3 - Quinta Vale Paraíso - Power Bike Trail"}},{"id":"GC3NKTD","parsed":{"lat":32.673867,"lon":-16.817933,"type":"traditional","name":"Miradouro da Contenda"}},{"id":"GC3P07Q","parsed":{"lat":32.67165,"lon":-16.814133,"type":"traditional","name":"Vereda do Farrobo"}},{"id":"GC4FM3E","parsed":{"lat":32.6687,"lon":-16.821567,"type":"traditional","name":"Poio dos Porcos"}},{"id":"GC62P06","parsed":{"lat":32.666917,"lon":-16.8615,"type":"traditional","name":"Furado"}},{"id":"GC5FHTB","parsed":{"lat":32.666717,"lon":-16.8183,"type":"traditional","name":"Vale do Porto Novo"}},{"id":"GC6GZZQ","parsed":{"lat":32.662933,"lon":-16.868483,"type":"multi","name":"Quinta do Palheiro Ferreiro"}},{"id":"GC517D5","parsed":{"lat":32.664717,"lon":-16.864817,"type":"mystery","name":"Geocoin enigma"}},{"id":"GC6GHK6","parsed":{"lat":32.663567,"lon":-16.83905,"type":"traditional","name":"Caniço Trail #9"}},{"id":"GC6GHKG","parsed":{"lat":32.663583,"lon":-16.832617,"type":"traditional","name":"Caniço Trail #11"}},{"id":"GC6GHKK","parsed":{"lat":32.66415,"lon":-16.82715,"type":"traditional","name":"Caniço Trail #12"}},{"id":"GC6GHKV","parsed":{"lat":32.6613,"lon":-16.821533,"type":"traditional","name":"Caniço Trail #14"}},{"id":"GC5VYRX","parsed":{"lat":32.658667,"lon":-16.8388,"type":"mystery","name":"Caniço, a Cidade"}},{"id":"GC42ABZ","parsed":{"lat":32.659567,"lon":-16.8341,"type":"traditional","name":"Pico de Água"}},{"id":"GC6GYTP","parsed":{"lat":32.658917,"lon":-16.826767,"type":"traditional","name":"Igreja da Assomada"}},{"id":"GC75F9J","parsed":{"lat":32.660317,"lon":-16.809967,"type":"traditional","name":"Figueira do Inferno"}},{"id":"GC577AM","parsed":{"lat":32.659167,"lon":-16.803333,"type":"mystery","name":"Mar"}},{"id":"GC76KG8","parsed":{"lat":32.657283,"lon":-16.812183,"type":"traditional","name":"As linhas de Nazca"}},{"id":"GC6GHJQ","parsed":{"lat":32.655617,"lon":-16.843,"type":"traditional","name":"Caniço Trail #6"}},{"id":"GC6GHJN","parsed":{"lat":32.651667,"lon":-16.842517,"type":"traditional","name":"Caniço Trail #5"}},{"id":"GC6GHM1","parsed":{"lat":32.653467,"lon":-16.8142,"type":"traditional","name":"Caniço Trail #16"}},{"id":"GC6A7QZ","parsed":{"lat":32.65093,"lon":-16.82379,"type":"traditional","name":"Praia a seus pés"}},{"id":"GC76GZB","parsed":{"lat":32.650433,"lon":-16.8165,"type":"earth","name":"Pico da Atalaia "}},{"id":"GC50K1P","parsed":{"lat":32.648567,"lon":-16.86935,"type":"traditional","name":"Núcleo dos Dragoeiros"}},{"id":"GC6GGXT","parsed":{"lat":32.647767,"lon":-16.8431,"type":"traditional","name":"Caniço Trail #3"}},{"id":"GC5X51A","parsed":{"lat":32.6477,"lon":-16.8237,"type":"multi","name":"A Promenade"}},{"id":"GC6ETVA","parsed":{"lat":32.64595,"lon":-16.861933,"type":"traditional","name":"A Cancela"}},{"id":"GC43MXM","parsed":{"lat":32.6456,"lon":-16.8562,"type":"traditional","name":"Capela da Quinta"}},{"id":"GC6EGKT","parsed":{"lat":32.644533,"lon":-16.827717,"type":"traditional","name":"Solar e Forte dos Reis Magos"}},{"id":"GC4RWE7","parsed":{"lat":32.642711,"lon":-16.850081,"type":"traditional","name":"O GARAJAU"}},{"id":"GC6GGNJ","parsed":{"lat":32.642233,"lon":-16.846083,"type":"traditional","name":"Caniço Trail #1"}},{"id":"GC6EVWW","parsed":{"lat":32.6425,"lon":-16.823333,"type":"mystery","name":"Synesthesia"}},{"id":"GC2WDXW","parsed":{"lat":32.640867,"lon":-16.831983,"type":"traditional","name":"Cais da Ponta da Oliveira"}},{"id":"GC4V50T","parsed":{"lat":32.6369,"lon":-16.850283,"type":"traditional","name":"Baleação"}},{"id":"GC5DPZ3","parsed":{"lat":32.750317,"lon":-16.6908,"type":"traditional","name":"SS FORERUNNER (1854)"}},{"id":"GC4TR40","parsed":{"lat":32.746833,"lon":-16.685217,"type":"traditional","name":"Vertigo - All the elements!"}},{"id":"GC16F1A","parsed":{"lat":32.742167,"lon":-16.685967,"type":"traditional","name":"OASIS"}},{"id":"GC3WRXN","parsed":{"lat":32.739483,"lon":-16.681033,"type":"traditional","name":"Farol à Vista"}},{"id":"GC5455T","parsed":{"lat":32.733233,"lon":-16.672283,"type":"traditional","name":"O Vigilante dos mares"}},{"id":"GC510NM","parsed":{"lat":32.730817,"lon":-16.663633,"type":"traditional","name":"Ponta de são lourenço"}},{"id":"GC374YK","parsed":{"lat":33.0928,"lon":-16.347117,"type":"traditional","name":"Porto das Salemas"}},{"id":"GCMD9X","parsed":{"lat":33.086667,"lon":-16.355883,"type":"multi","name":"The Prophet"}},{"id":"GC59T1G","parsed":{"lat":33.0805,"lon":-16.368867,"type":"traditional","name":"Vista do Ilhéu da Fonte da Areia"}},{"id":"GC4DWR0","parsed":{"lat":33.081783,"lon":-16.357233,"type":"traditional","name":"Tesouro de Areia"}},{"id":"GC78XMB","parsed":{"lat":33.07785,"lon":-16.352033,"type":"traditional","name":"Guarda l'aereo... (Aeroporto PXO)"}},{"id":"GC3X0TN","parsed":{"lat":33.0747,"lon":-16.366667,"type":"traditional","name":"Geodésico da Barbara Gomes"}},{"id":"GC374Z3","parsed":{"lat":33.0733,"lon":-16.374467,"type":"traditional","name":"Falésia das Cores"}},{"id":"GC3YRKX","parsed":{"lat":33.070567,"lon":-16.36245,"type":"traditional","name":"Parque Fotovoltaico do Porto Santo"}},{"id":"GC3W0PJ","parsed":{"lat":33.066917,"lon":-16.374217,"type":"traditional","name":"Eiras"}},{"id":"GC3W0ER","parsed":{"lat":33.0623,"lon":-16.37035,"type":"mystery","name":"Oásis"}},{"id":"GC4MAQA","parsed":{"lat":33.064033,"lon":-16.345933,"type":"traditional","name":"Vértice Geodésico Datum Base SE"}},{"id":"GC3YRKG","parsed":{"lat":33.058667,"lon":-16.362833,"type":"traditional","name":"Parque Eólico do Cabeço do Carvalho"}},{"id":"GC5DA6X","parsed":{"lat":33.058664,"lon":-16.354408,"type":"traditional","name":"Levada"}},{"id":"GC3YZWW","parsed":{"lat":33.052917,"lon":-16.378867,"type":"traditional","name":"Golf Seve Ballesteros"}},{"id":"GC1YZN6","parsed":{"lat":33.04895,"lon":-16.367,"type":"earth","name":"Pico Ana Ferreira"}},{"id":"GC3W49N","parsed":{"lat":33.049633,"lon":-16.351883,"type":"traditional","name":"Capela do Espirito Santo"}},{"id":"GC3W0KE","parsed":{"lat":33.043683,"lon":-16.369983,"type":"traditional","name":"Pedreira"}},{"id":"GC3VT3N","parsed":{"lat":33.04235,"lon":-16.382933,"type":"traditional","name":"Pico do Espigão"}},{"id":"GC5CNZ5","parsed":{"lat":33.0418,"lon":-16.362433,"type":"traditional","name":"Croché"}},{"id":"GC3TKR1","parsed":{"lat":33.0397,"lon":-16.394167,"type":"traditional","name":"Pxo - Morenos"}},{"id":"GC4HJ5Y","parsed":{"lat":33.040117,"lon":-16.38655,"type":"traditional","name":"Área de Lazer dos Morenos"}},{"id":"GC3X0N1","parsed":{"lat":33.038983,"lon":-16.367483,"type":"traditional","name":"Geodésico da Ponta"}},{"id":"GC6QJ1P","parsed":{"lat":33.033867,"lon":-16.39085,"type":"traditional","name":"Farol do Ilhéu de Ferro"}},{"id":"GC3WA77","parsed":{"lat":33.031733,"lon":-16.38675,"type":"traditional","name":"Zimbralinho"}},{"id":"GC16F1H","parsed":{"lat":33.029533,"lon":-16.3822,"type":"traditional","name":"View to Madeira"}},{"id":"GC3V595","parsed":{"lat":33.029317,"lon":-16.3712,"type":"traditional","name":"Areal do Porto Santo"}},{"id":"GC3V5AN","parsed":{"lat":33.025016,"lon":-16.380764,"type":"traditional","name":"Praia Secreta"}},{"id":"GC48TTA","parsed":{"lat":32.513533,"lon":-16.508817,"type":"earth","name":"\"Reserva Natural das Ilhas Desertas\""}},{"id":"GC5TRKZ","parsed":{"lat":33.105317,"lon":-16.322983,"type":"traditional","name":"A Vigia"}},{"id":"GC5TRK5","parsed":{"lat":33.102133,"lon":-16.328267,"type":"traditional","name":"Northern Coast"}},{"id":"GC3VRFB","parsed":{"lat":33.097617,"lon":-16.3339,"type":"traditional","name":"Cabeço do Guilherme"}},{"id":"GC3XY8Q","parsed":{"lat":33.09795,"lon":-16.312433,"type":"traditional","name":"Vista Branca"}},{"id":"GC4TDN9","parsed":{"lat":33.096017,"lon":-16.326933,"type":"traditional","name":"Ruínas"}},{"id":"GC7C7K1","parsed":{"lat":33.095667,"lon":-16.321583,"type":"earth","name":"PGPS/EC11 - Porto Santo  - Pico da Cabrita"}},{"id":"GC3VZ2W","parsed":{"lat":33.09285,"lon":-16.336267,"type":"mystery","name":"Princesa Leuchtturm"}},{"id":"GC3R5BA","parsed":{"lat":33.0921,"lon":-16.32175,"type":"traditional","name":"Pico Juliana"}},{"id":"GC374YX","parsed":{"lat":33.0941,"lon":-16.3,"type":"traditional","name":"Terra Chã"}},{"id":"GC7C7JX","parsed":{"lat":33.090833,"lon":-16.304167,"type":"earth","name":"PGPS/EC10 - Porto Santo - Pico Branco"}},{"id":"GC4QTQ6","parsed":{"lat":33.085633,"lon":-16.318567,"type":"traditional","name":"Ninho das Mantas"}},{"id":"GC5D6Y6","parsed":{"lat":33.083383,"lon":-16.337333,"type":"traditional","name":"Descoberta Medieval"}},{"id":"GC4XAE2","parsed":{"lat":33.082783,"lon":-16.3301,"type":"traditional","name":"Vereda do Pico de Facho"}},{"id":"GC3R57F","parsed":{"lat":33.08435,"lon":-16.323383,"type":"traditional","name":"Pico do Facho"}},{"id":"GC4DWR6","parsed":{"lat":33.0835,"lon":-16.29965,"type":"traditional","name":"Praia Deserta"}},{"id":"GC374XD","parsed":{"lat":33.08095,"lon":-16.333717,"type":"traditional","name":"Pico Castelo"}},{"id":"GC4WFZN","parsed":{"lat":33.078667,"lon":-16.31025,"type":"traditional","name":"Oh não!!! Mais um Geodésico!!!!"}},{"id":"GC5TVCJ","parsed":{"lat":33.078767,"lon":-16.29745,"type":"traditional","name":"Pico do Concelho"}},{"id":"GC4WKHV","parsed":{"lat":33.077417,"lon":-16.32965,"type":"traditional","name":"Arco"}},{"id":"GC3VZ7C","parsed":{"lat":33.076183,"lon":-16.293483,"type":"traditional","name":"Praia do Gastão"}},{"id":"GC3X0QT","parsed":{"lat":33.075717,"lon":-16.3376,"type":"traditional","name":"Geodésico da Quebrada"}},{"id":"GC4DWQG","parsed":{"lat":33.0729,"lon":-16.3211,"type":"traditional","name":"Topo da Graça"}},{"id":"GC4TCW4","parsed":{"lat":33.069217,"lon":-16.34105,"type":"traditional","name":"Hogna Schmitzi"}},{"id":"GC5RZYT","parsed":{"lat":33.070567,"lon":-16.2738,"type":"mystery","name":"Dharma Initiative - The Hydra Station"}},{"id":"GC7C7J9","parsed":{"lat":33.068583,"lon":-16.298167,"type":"earth","name":"PGPS/EC7 - Porto Santo-Eolianitos da Serra de Fora"}},{"id":"GC3R57K","parsed":{"lat":33.066067,"lon":-16.334333,"type":"traditional","name":"Parque Florestal dos Salões"}},{"id":"GC3X0QC","parsed":{"lat":33.066283,"lon":-16.311533,"type":"traditional","name":"Geodésico da Portela"}},{"id":"GC4DWQ5","parsed":{"lat":33.065833,"lon":-16.303367,"type":"traditional","name":"Pico Maçarico"}},{"id":"GC3TN2D","parsed":{"lat":33.063717,"lon":-16.317483,"type":"traditional","name":"TB Hotel PXO"}},{"id":"GC4FRPD","parsed":{"lat":33.06305,"lon":-16.31015,"type":"traditional","name":"Areal Novo"}},{"id":"GC3VZ97","parsed":{"lat":33.0612,"lon":-16.295917,"type":"traditional","name":"Ponta da Galé"}},{"id":"GC5CCEK","parsed":{"lat":33.05835,"lon":-16.338667,"type":"traditional","name":"Brum do Canto"}},{"id":"GC4GBWQ","parsed":{"lat":33.05875,"lon":-16.320983,"type":"mystery","name":"O Profeta Caracol"}},{"id":"GC41AQW","parsed":{"lat":33.0584,"lon":-16.313517,"type":"traditional","name":"Porto de Abrigo do Porto Santo"}},{"id":"GC3T4HX","parsed":{"lat":33.055267,"lon":-16.342117,"type":"traditional","name":"Moinho"}},{"id":"GC74K6H","parsed":{"lat":33.05525,"lon":-16.286333,"type":"earth","name":"O CABEÇO DAS LARANJAS E A PEDRA DO SOL"}},{"id":"GC58MP8","parsed":{"lat":33.054517,"lon":-16.278583,"type":"traditional","name":"Ilhéu de Cima"}},{"id":"GC7JT8J","parsed":{"lat":32.814417,"lon":-17.121267,"type":"traditional","name":"Galinhaça"}},{"id":"GC41H9A","parsed":{"lat":32.79105,"lon":-17.181267,"type":"traditional","name":"PT#12 - December"}},{"id":"GC7HPAJ","parsed":{"lat":32.69445,"lon":-17.073783,"type":"traditional","name":"Abrigo"}},{"id":"GC610Q1","parsed":{"lat":32.668633,"lon":-17.03085,"type":"traditional","name":"Igrejas de Campanário"}},{"id":"GC7KQFH","parsed":{"lat":32.6656,"lon":-17.0322,"type":"mystery","name":"Arte Urbana - Campanário"}},{"id":"GC7HQVW","parsed":{"lat":32.662,"lon":-16.934567,"type":"traditional","name":"HVM"}},{"id":"GC7KMZ7","parsed":{"lat":32.65965,"lon":-16.988983,"type":"traditional","name":"Alto do Liro"}},{"id":"GC7JK7N","parsed":{"lat":32.776217,"lon":-16.856967,"type":"traditional","name":"Longe da Covilhã"}},{"id":"GC78MW1","parsed":{"lat":32.73225,"lon":-16.784717,"type":"earth","name":"M04 Furnas do Cavalum"}},{"id":"GC7G3NK","parsed":{"lat":32.714967,"lon":-16.755033,"type":"earth","name":"Baixa da Cruz"}},{"id":"GC7HX1N","parsed":{"lat":32.655967,"lon":-16.821867,"type":"traditional","name":"Outros olhares "}},{"id":"GC7KP2K","parsed":{"lat":32.6476,"lon":-16.847733,"type":"traditional","name":"Acreditas na sorte?"}},{"id":"GC7KN1Z","parsed":{"lat":32.64665,"lon":-16.8312,"type":"traditional","name":"Caminhos e Veredas"}},{"id":"GC7J868","parsed":{"lat":32.643383,"lon":-16.856567,"type":"traditional","name":"VG da Cancela"}},{"id":"GC6TQ3W","parsed":{"lat":33.057367,"lon":-16.334967,"type":"earth","name":"The sands of Golden Island"}},{"id":"GC3DEHY","parsed":{"lat":51.507333,"lon":12.27795,"type":"traditional","name":"Querings First"}},{"id":"GC5A1BF","parsed":{"lat":51.500967,"lon":12.242233,"type":"traditional","name":"Wiedemar und seine Dörfer \"Peterwitz\" "}},{"id":"GC59ZPT","parsed":{"lat":51.498367,"lon":12.228583,"type":"traditional","name":"Wiedemar und seine Dörfer \"Klitzschmar\" Denkmal"}},{"id":"GC59ZQ0","parsed":{"lat":51.4982,"lon":12.2338,"type":"traditional","name":"Wiedemar und seine Dörfer\"Klitzschmar\"Neubaugebiet"}},{"id":"GC65E1B","parsed":{"lat":51.49765,"lon":12.28185,"type":"traditional","name":"Rudolf Tigerauges Home"}},{"id":"GC5A1B4","parsed":{"lat":51.494583,"lon":12.273033,"type":"traditional","name":"Wiedemar und seine Dörfer \"Lisssa\" "}},{"id":"GC43AA6","parsed":{"lat":51.488883,"lon":12.30555,"type":"mystery","name":"Packhilfsmittel"}},{"id":"GC3NANN","parsed":{"lat":51.487917,"lon":12.27635,"type":"traditional","name":"Brücke zur Artenvielfalt"}},{"id":"GC3NAMV","parsed":{"lat":51.485383,"lon":12.270833,"type":"traditional","name":"Sprachrohr"}},{"id":"GC3NAR8","parsed":{"lat":51.485667,"lon":12.294917,"type":"traditional","name":"Zwischen den Zäunen"}},{"id":"GC3NAJC","parsed":{"lat":51.480133,"lon":12.271483,"type":"multi","name":"Vögel am See"}},{"id":"GC3NAHA","parsed":{"lat":51.477583,"lon":12.273617,"type":"traditional","name":"Rekultivierung"}},{"id":"GC5A1CP","parsed":{"lat":51.471367,"lon":12.231267,"type":"traditional","name":"Wiedemar und seine Dörfer \"Kölsa\" "}},{"id":"GC3NAQM","parsed":{"lat":51.4718,"lon":12.285783,"type":"traditional","name":"Findlingspark"}},{"id":"GC5A1CW","parsed":{"lat":51.467617,"lon":12.19995,"type":"traditional","name":"Wiedemar und seine Dörfer \"Wiedemar- Jugendclub\" "}},{"id":"GC5A1BP","parsed":{"lat":51.466133,"lon":12.267967,"type":"traditional","name":"Wiedemar und seine Dörfer \"Zwochau Teich\" "}},{"id":"GC3E7RX","parsed":{"lat":51.4638,"lon":12.2021,"type":"traditional","name":"Der Strengbach: Das Nasse Ende"}},{"id":"GCWGY8","parsed":{"lat":51.461717,"lon":12.181083,"type":"traditional","name":"Outbreak#12 Wo liegt er?"}},{"id":"GC11N12","parsed":{"lat":51.462283,"lon":12.255183,"type":"multi","name":"Gienicke"}},{"id":"GC4B26F","parsed":{"lat":51.460567,"lon":12.20225,"type":"traditional","name":"Der Strengbach: Die alte Wassermühle"}},{"id":"GC5A1BV","parsed":{"lat":51.459033,"lon":12.273033,"type":"traditional","name":"Wiedemar und seine Dörfer\"Zwochau Sport & Mühle\" "}},{"id":"GC5A1C3","parsed":{"lat":51.457517,"lon":12.259333,"type":"traditional","name":"Wiedemar und seine Dörfer \"Grebehna\" "}},{"id":"GC50R4J","parsed":{"lat":51.455883,"lon":12.1833,"type":"traditional","name":"Falkis Geburtstagscache"}},{"id":"GC16NPW","parsed":{"lat":51.452017,"lon":12.29955,"type":"multi","name":"Madman und die Industriegeschichte"}},{"id":"GC45QB0","parsed":{"lat":51.444218,"lon":12.12741,"type":"traditional","name":"Cobra's Metallschlange"}},{"id":"GC5A1E1","parsed":{"lat":51.445083,"lon":12.1692,"type":"traditional","name":"Wiedemar und seine Dörfer \"Rabutz\" "}},{"id":"GC5A1DD","parsed":{"lat":51.438861,"lon":12.189083,"type":"traditional","name":"Wiedemar und seine Dörfer \"Werlitzsch\" "}},{"id":"GC4D83A","parsed":{"lat":51.43748,"lon":12.24112,"type":"traditional","name":"ROST \"Glesien\""}},{"id":"GC1A86R","parsed":{"lat":51.436,"lon":12.207,"type":"mystery","name":"LEJ - Bahn Nord"}},{"id":"GC3C1BX","parsed":{"lat":51.43495,"lon":12.2286,"type":"traditional","name":"Der Strengbach: Die Quelle"}},{"id":"GC3G699","parsed":{"lat":51.434167,"lon":12.275,"type":"mystery","name":"Digital confusion for beginners"}},{"id":"GC3B65Z","parsed":{"lat":51.432917,"lon":12.253917,"type":"mystery","name":"digital confusion ..."}},{"id":"GC3B9DH","parsed":{"lat":51.4323,"lon":12.258733,"type":"mystery","name":"digital confusion goes on"}},{"id":"GC602AJ","parsed":{"lat":51.433567,"lon":12.266767,"type":"mystery","name":"Gut getarnt"}},{"id":"GC4TJNT","parsed":{"lat":51.428833,"lon":12.140267,"type":"traditional","name":"Kabelske am Ufer"}},{"id":"GC63C2","parsed":{"lat":51.429883,"lon":12.185183,"type":"mystery","name":"Der See lockt zum Baden"}},{"id":"GC4ZRW3","parsed":{"lat":51.4296,"lon":12.270867,"type":"traditional","name":"LEJ Nord-Landebahn"}},{"id":"GCV6MM","parsed":{"lat":51.428133,"lon":12.198433,"type":"multi","name":"Walpurgis"}},{"id":"GC4ZCP3","parsed":{"lat":51.427967,"lon":12.305917,"type":"traditional","name":"Der Troll-Schatz"}},{"id":"GC4CHRC","parsed":{"lat":51.426008,"lon":12.270869,"type":"traditional","name":"Rastafareis Surprise 3"}},{"id":"GC4QKPG","parsed":{"lat":51.4252,"lon":12.287483,"type":"traditional","name":"Die alte Straße"}},{"id":"GC760F7","parsed":{"lat":51.4241,"lon":12.221367,"type":"traditional","name":"TB-Hotel Am LEJ"}},{"id":"GC33RBJ","parsed":{"lat":51.423917,"lon":12.296617,"type":"multi","name":"Dorfkirche Radefeld"}},{"id":"GC4QY6R","parsed":{"lat":51.422083,"lon":12.1593,"type":"traditional","name":"Kabelske: Hünengrab"}},{"id":"GC4DMKC","parsed":{"lat":51.421983,"lon":12.256183,"type":"traditional","name":"ROST \"LEJ\""}},{"id":"GC4H5XG","parsed":{"lat":51.423067,"lon":12.290867,"type":"traditional","name":"Froschteich "}},{"id":"GC5KHHA","parsed":{"lat":51.418733,"lon":12.16425,"type":"traditional","name":"Hochzeitscache für Eri-Ka"}},{"id":"GC4CRTK","parsed":{"lat":51.419826,"lon":12.301531,"type":"traditional","name":"Rastafareis Surprise 4"}},{"id":"GC6ZAFC","parsed":{"lat":51.416667,"lon":12.173333,"type":"mystery","name":"Hilfe - Vogelgrippe H7N9"}},{"id":"GC22CJ6","parsed":{"lat":51.416667,"lon":12.191667,"type":"mystery","name":"Der Fremde"}},{"id":"GC6X219","parsed":{"lat":51.41525,"lon":12.15275,"type":"mystery","name":"Erster Mystery in Großkugel"}},{"id":"GC66RXN","parsed":{"lat":51.413917,"lon":12.148117,"type":"multi","name":"Yakari"}},{"id":"GC6WME1","parsed":{"lat":51.413767,"lon":12.279233,"type":"traditional","name":"Ufo`s am Himmel gesichtet"}},{"id":"GC620J5","parsed":{"lat":51.411817,"lon":12.156283,"type":"traditional","name":"Hochzeitstagscache der 2. "}},{"id":"GC5RFNV","parsed":{"lat":51.413,"lon":12.1676,"type":"traditional","name":"cuckoo"}},{"id":"GC6AM01","parsed":{"lat":51.410367,"lon":12.14135,"type":"traditional","name":"Noch 500 km bis Göhren/Rügen"}},{"id":"GC5ZTB0","parsed":{"lat":51.4086,"lon":12.126683,"type":"traditional","name":"Des Jägers heim "}},{"id":"GC741TM","parsed":{"lat":51.409167,"lon":12.175833,"type":"mystery","name":"Frehedefemdsprahadefachehedefen"}},{"id":"GC23D1B","parsed":{"lat":51.407267,"lon":12.212367,"type":"traditional","name":"Ruslan Salis"}},{"id":"GC3FME7","parsed":{"lat":51.405917,"lon":12.30125,"type":"traditional","name":"Teststrecke"}},{"id":"GC27DZ3","parsed":{"lat":51.404183,"lon":12.210267,"type":"mystery","name":"Messeflughafen Leipzig"}},{"id":"GC6VZWE","parsed":{"lat":51.403383,"lon":12.230667,"type":"traditional","name":"Freirodaer Weg"}},{"id":"GC6VW32","parsed":{"lat":51.403816666666664,"lon":12.251183333333334,"type":"traditional","name":"Scudici"}},{"id":"GC6TP33","parsed":{"lat":51.4017,"lon":12.195817,"type":"traditional","name":"Under the Bridge"}},{"id":"GC43R39","parsed":{"lat":51.401567,"lon":12.220817,"type":"traditional","name":"Beobachten"}},{"id":"GC1VW1W","parsed":{"lat":51.4012,"lon":12.236167,"type":"traditional","name":"Blick auf das Luftfrachtdrehkreuz"}},{"id":"GC5RWXW","parsed":{"lat":51.402117,"lon":12.242217,"type":"traditional","name":"Sit in & Find out"}},{"id":"GC1HY33","parsed":{"lat":51.4,"lon":12.216667,"type":"mystery","name":"Schkeuditzer Kreuz"}},{"id":"GC3BAA9","parsed":{"lat":51.4,"lon":12.308333,"type":"mystery","name":"Reise zum Mittelpunkt der Erde"}},{"id":"GC5F5GN","parsed":{"lat":51.39807,"lon":12.19256,"type":"traditional","name":"Bum_Tschack_Bumbum_Tschack"}},{"id":"GC6WGGK","parsed":{"lat":51.39796666666667,"lon":12.234933333333334,"type":"traditional","name":"Der Rotaugenlaubfrosch"}},{"id":"GC5R4FN","parsed":{"lat":51.396367,"lon":12.197033,"type":"traditional","name":"Schkeuditzer Hexenkessel"}},{"id":"GC6E9VX","parsed":{"lat":51.397,"lon":12.272083,"type":"traditional","name":"Elementare Chemie"}},{"id":"GC57HBZ","parsed":{"lat":51.39575,"lon":12.1334,"type":"traditional","name":"Rund um Röglitz #1  \"Das alte Wasserwerk\""}},{"id":"GC2VZP4","parsed":{"lat":51.395933,"lon":12.22115,"type":"multi","name":"Kleine Schkeuditzer Runde"}},{"id":"GC7BTWJ","parsed":{"lat":51.392583,"lon":12.211267,"type":"traditional","name":"Ramschniveau"}},{"id":"GC2BY17","parsed":{"lat":51.3941,"lon":12.216133,"type":"traditional","name":"Am Klingelborn"}},{"id":"GC3N7ZT","parsed":{"lat":51.394083,"lon":12.229183,"type":"traditional","name":"Das Beste..."}},{"id":"GC1QJ1M","parsed":{"lat":51.391667,"lon":12.241667,"type":"mystery","name":"Leben des Galilei"}},{"id":"GC54THR","parsed":{"lat":51.390017,"lon":12.1294,"type":"traditional","name":"Elsterdamm"}},{"id":"GC4TR4G","parsed":{"lat":51.390517,"lon":12.1775,"type":"traditional","name":"Ländergrenze Sachsen - Sachsen/Anhalt"}},{"id":"GC43R3N","parsed":{"lat":51.390733,"lon":12.229617,"type":"mystery","name":"Bonus Herrnholzrunde"}},{"id":"GC758ND","parsed":{"lat":51.3904,"lon":12.2664,"type":"traditional","name":"Einer von 240"}},{"id":"GC3YKCT","parsed":{"lat":51.390033,"lon":12.292433,"type":"multi","name":"Eiszeit c/o Bahnhof Lützschena"}},{"id":"GC7G9RY","parsed":{"lat":51.3902,"lon":12.30375,"type":"traditional","name":"Lockpicking für Einsteiger"}},{"id":"GC21DFW","parsed":{"lat":51.388133,"lon":12.2012,"type":"traditional","name":"Der grüne Pfeil"}},{"id":"GC6CJQ3","parsed":{"lat":51.3887,"lon":12.2144,"type":"traditional","name":"Neue Elsterbrücke"}},{"id":"GC2D6E6","parsed":{"lat":51.388717,"lon":12.2225,"type":"traditional","name":"Blick auf´s Wehr Schkeuditz"}},{"id":"GC2D68J","parsed":{"lat":51.387583,"lon":12.229117,"type":"traditional","name":"Am Herrnholz  Nr 3 Herrnholzrunde"}},{"id":"GC2K55Z","parsed":{"lat":51.3889,"lon":12.233267,"type":"traditional","name":"Brücke zum Herrnholz  Nr 1 Herrnholzrunde"}},{"id":"GC74D5P","parsed":{"lat":51.388783,"lon":12.24655,"type":"multi","name":"Es lebe der ..."}},{"id":"GC1QJ8N","parsed":{"lat":51.387217,"lon":12.166317,"type":"traditional","name":"Elstergraben"}},{"id":"GC19ERD","parsed":{"lat":51.385717,"lon":12.18065,"type":"traditional","name":"Feldstein"}},{"id":"GC36RKY","parsed":{"lat":51.385883,"lon":12.222533,"type":"multi","name":"NC  Der kleine Geist aus dem Auenwald"}},{"id":"GC2D6D2","parsed":{"lat":51.386467,"lon":12.237433,"type":"traditional","name":"Wehr Altscherbitz  Nr 10 Herrnholzrunde"}},{"id":"GC5TVCD","parsed":{"lat":51.385017,"lon":12.146767,"type":"traditional","name":" LET THERE BE ROCK - A TRIBUTE TO MALCOLM YOUNG"}},{"id":"GC19T6T","parsed":{"lat":51.384867,"lon":12.189333,"type":"traditional","name":"Lilagrüner Steinbeisser"}},{"id":"GC12C3N","parsed":{"lat":51.3848,"lon":12.213583,"type":"traditional","name":"Singvögel"}},{"id":"GC6QNQH","parsed":{"lat":51.385017,"lon":12.242817,"type":"traditional","name":"Beim altem  Baum Nr 8 Herrnholzrunde"}},{"id":"GC1119C","parsed":{"lat":51.382517,"lon":12.1869,"type":"traditional","name":"Im Dunkeln ist gut Munkeln "}},{"id":"GC2D6AQ","parsed":{"lat":51.383967,"lon":12.234317,"type":"traditional","name":"Dreizack  Nr 5 Herrnholzrunde"}},{"id":"GC74DKB","parsed":{"lat":51.383617,"lon":12.255617,"type":"traditional","name":"Brücke in Modelwitz"}},{"id":"GC2D6CH","parsed":{"lat":51.383167,"lon":12.260317,"type":"traditional","name":"Wehr Modelwitz"}},{"id":"GC110F7","parsed":{"lat":51.381683,"lon":12.2022,"type":"traditional","name":"Revierort \" Die Sterne\""}},{"id":"GC11GMJ","parsed":{"lat":51.380817,"lon":12.21105,"type":"traditional","name":"Fuchslöcher"}},{"id":"GC193FE","parsed":{"lat":51.381467,"lon":12.22035,"type":"traditional","name":"TOTAL Abgedreht"}},{"id":"GC2D67C","parsed":{"lat":51.38135,"lon":12.2383,"type":"traditional","name":"Bei den 4 Pappeln  Nr 6 Herrnholzrunde"}},{"id":"GC6QNPK","parsed":{"lat":51.38075,"lon":12.242667,"type":"traditional","name":"Alte Bank an den Lemlachen Nr 7 Herrnholzrunde"}},{"id":"GC735QZ","parsed":{"lat":51.381624,"lon":12.25182,"type":"traditional","name":"Am Wegesrand"}},{"id":"GCQDT3","parsed":{"lat":51.380967,"lon":12.294733,"type":"multi","name":"Brücke"}},{"id":"GC117N1","parsed":{"lat":51.379867,"lon":12.180483,"type":"traditional","name":"Holzwurm aus Plaste"}},{"id":"GC10QE3","parsed":{"lat":51.380183,"lon":12.197617,"type":"traditional","name":"Weiß der Uhu!"}},{"id":"GC2D6BN","parsed":{"lat":51.378417,"lon":12.279783,"type":"traditional","name":"Wehr Lützschena"}},{"id":"GC68PFB","parsed":{"lat":51.3773,"lon":12.284067,"type":"traditional","name":"TB - Einsame Eibe"}},{"id":"GC1AJ1M","parsed":{"lat":51.377133,"lon":12.176267,"type":"traditional","name":"Abseits"}},{"id":"GC5GY2F","parsed":{"lat":51.374,"lon":12.280283,"type":"mystery","name":"I’m säggsi #2"}},{"id":"GC3NDEA","parsed":{"lat":51.37415,"lon":12.3057,"type":"mystery","name":"Rein Zufällig?"}},{"id":"GC5K3R9","parsed":{"lat":51.3734,"lon":12.23925,"type":"mystery","name":"I'm säggsi #3"}},{"id":"GC3K1AJ","parsed":{"lat":51.372183,"lon":12.250033,"type":"traditional","name":"Wald Café"}},{"id":"GC6B9GV","parsed":{"lat":51.372667,"lon":12.286733,"type":"traditional","name":"Marienkapelle"}},{"id":"GC46TBX","parsed":{"lat":51.370383,"lon":12.2833,"type":"mystery","name":"Lass uns zusammenarbeiten"}},{"id":"GC63MN1","parsed":{"lat":51.3715,"lon":12.298333,"type":"traditional","name":"Chill mal wieder!"}},{"id":"GC2NNMM","parsed":{"lat":51.369033333333334,"lon":12.1885,"type":"traditional","name":"Autobahnbrücke Kleinliebenau "}},{"id":"GC69E5F","parsed":{"lat":51.369433,"lon":12.234033,"type":"traditional","name":"Don Jovanni - Kapitel 6"}},{"id":"GC6BAZ0","parsed":{"lat":51.3698,"lon":12.293067,"type":"traditional","name":"Der kleine Adler"}},{"id":"GC695N3","parsed":{"lat":51.367567,"lon":12.23125,"type":"traditional","name":"Don Jovanni - Kapitel 3"}},{"id":"GC7GH6V","parsed":{"lat":51.367083,"lon":12.263633,"type":"traditional","name":"Bill ist Thema #3"}},{"id":"GC3XBT1","parsed":{"lat":51.367517,"lon":12.27515,"type":"traditional","name":"Waldspaziergang"}},{"id":"GC4NTYQ","parsed":{"lat":51.367133,"lon":12.279867,"type":"traditional","name":"Brücke am Hinterforstweg"}},{"id":"GC69ZEV","parsed":{"lat":51.365633,"lon":12.221533,"type":"traditional","name":"Don Jovanni - Kapitel 11"}},{"id":"GC3XBWD","parsed":{"lat":51.3663,"lon":12.2894,"type":"traditional","name":"An den Lachen "}},{"id":"GC6C5T0","parsed":{"lat":51.366667,"lon":12.3,"type":"mystery","name":"Werbung"}},{"id":"GC6P1RZ","parsed":{"lat":51.36485,"lon":12.173283,"type":"multi","name":"Horburger Madonna"}},{"id":"GC7GB97","parsed":{"lat":51.363867,"lon":12.24845,"type":"traditional","name":"Bill ist Thema #1"}},{"id":"GC7GH60","parsed":{"lat":51.364917,"lon":12.259733,"type":"traditional","name":"Bill ist Thema #2"}},{"id":"GC6DQ7R","parsed":{"lat":51.36295,"lon":12.26665,"type":"mystery","name":"Mathematische Konstanten"}},{"id":"GCPAN1","parsed":{"lat":51.361833,"lon":12.293417,"type":"traditional","name":"Waldschrat"}},{"id":"GC2YC9C","parsed":{"lat":51.36155,"lon":12.210683,"type":"traditional","name":"Imigei der zweite"}},{"id":"GC69TNZ","parsed":{"lat":51.361183,"lon":12.221933,"type":"traditional","name":"Don Jovanni - Kapitel 9"}},{"id":"GC2KKBZ","parsed":{"lat":51.36165,"lon":12.2754,"type":"mystery","name":"German Police ?"}},{"id":"GC51B0H","parsed":{"lat":51.360917,"lon":12.302367,"type":"traditional","name":"Kücken wird flügge"}},{"id":"GC3PCGZ","parsed":{"lat":51.36125,"lon":12.308933,"type":"traditional","name":"Am Bauerngraben III"}},{"id":"GC2YWZ4","parsed":{"lat":51.359167,"lon":12.229167,"type":"mystery","name":"WOODCHECKER II"}},{"id":"GC2KNYF","parsed":{"lat":51.359117,"lon":12.2762,"type":"mystery","name":"L.E. Spiele-Rätsel-Würfel"}},{"id":"GC2JHGD","parsed":{"lat":51.357583,"lon":12.258283,"type":"traditional","name":"Sportiv"}},{"id":"GC2ZEJ9","parsed":{"lat":51.35755,"lon":12.271833,"type":"mystery","name":"Mit PONG fing alles an ..."}},{"id":"GC5ATGN","parsed":{"lat":51.355467,"lon":12.235433,"type":"traditional","name":"Ochsenwegbrücke"}},{"id":"GC2MT39","parsed":{"lat":51.356383,"lon":12.2777,"type":"mystery","name":"20 Jahre Deutsche Spiele"}},{"id":"GC6N92M","parsed":{"lat":51.354183,"lon":12.224867,"type":"wherigo","name":"Bewirb Dich jetzt!"}},{"id":"GC5Z68Y","parsed":{"lat":51.35245,"lon":12.21545,"type":"traditional","name":"Imigei der Vogelwart"}},{"id":"GC77KPD","parsed":{"lat":51.35295,"lon":12.303633,"type":"wherigo","name":"Polygraph Reprotechnik"}},{"id":"GC33X9N","parsed":{"lat":51.350817,"lon":12.182483,"type":"mystery","name":"Schnipp schnapp"}},{"id":"GC7HTY5","parsed":{"lat":51.3499,"lon":12.198083,"type":"mystery","name":"Tierische Sportwelt"}},{"id":"GC5ZB3D","parsed":{"lat":51.350333,"lon":12.221117,"type":"mystery","name":"MM - MMM"}},{"id":"GC16FR7","parsed":{"lat":51.351367,"lon":12.246183,"type":"multi","name":"Durch das wilde Bienitztan"}},{"id":"GC4VZFB","parsed":{"lat":51.351017,"lon":12.27935,"type":"mystery","name":"Unnützes Wissen #1"}},{"id":"GC59HND","parsed":{"lat":51.350017,"lon":12.294017,"type":"traditional","name":"Ich kann nicht schlafen...! (Stage 3)"}},{"id":"GC2BF05","parsed":{"lat":51.35,"lon":12.3,"type":"mystery","name":"Zur Erinnerung"}},{"id":"GC3XFM4","parsed":{"lat":51.348733,"lon":12.191,"type":"mystery","name":"1/1 Mystery-Challenge"}},{"id":"GC6W8JB","parsed":{"lat":51.348917,"lon":12.206117,"type":"mystery","name":"Snookerfans"}},{"id":"GC3VZ5F","parsed":{"lat":51.347833,"lon":12.1853,"type":"mystery","name":"TeeFünf - ohne Beutel geht nix !"}},{"id":"GC5CX71","parsed":{"lat":51.347917,"lon":12.2818,"type":"mystery","name":"Unnützes Wissen #4"}},{"id":"GC5X750","parsed":{"lat":51.34755,"lon":12.299,"type":"traditional","name":"Willkomen an der AWO Akademie"}},{"id":"GC6A015","parsed":{"lat":51.344883,"lon":12.1766,"type":"traditional","name":" Don Jovanni - Kapitel 14"}},{"id":"GC711BF","parsed":{"lat":51.34505,"lon":12.274267,"type":"traditional","name":"Lapidem"}},{"id":"GC1W99K","parsed":{"lat":51.344617,"lon":12.282217,"type":"traditional","name":"Am unvollendeten ESK"}},{"id":"GC710C2","parsed":{"lat":51.34455,"lon":12.17175,"type":"multi","name":"Günthersdorfer Eiskeller #2"}},{"id":"GC33QRP","parsed":{"lat":51.342933,"lon":12.236283,"type":"mystery","name":"Herausforderung: 222 Waymarks"}},{"id":"GC68WFZ","parsed":{"lat":51.343267,"lon":12.242633,"type":"traditional","name":"Don Jovanni - Kapitel 2"}},{"id":"GC2YF2C","parsed":{"lat":51.343667,"lon":12.299167,"type":"mystery","name":"Ostautos"}},{"id":"GC2NNMB","parsed":{"lat":51.34278333333334,"lon":12.155,"type":"traditional","name":"Blick auf die Agrargenossenschaft "}},{"id":"GC2JQRJ","parsed":{"lat":51.342583,"lon":12.225917,"type":"mystery","name":"Bob der Baumeister und Meister Manny"}},{"id":"GC5GVGN","parsed":{"lat":51.342267,"lon":12.255083,"type":"multi","name":"Wachberg"}},{"id":"GC1XX90","parsed":{"lat":51.341317,"lon":12.282017,"type":"traditional","name":"Bahnhof Rückmarsdorf"}},{"id":"GC71XP2","parsed":{"lat":51.341533,"lon":12.287567,"type":"mystery","name":"???Flohmarkt oder Geocaching???"}},{"id":"GC5P4BX","parsed":{"lat":51.340567,"lon":12.30015,"type":"traditional","name":"Ehemals zur Leitplanke"}},{"id":"GC5AXM2","parsed":{"lat":51.338633,"lon":12.295033,"type":"traditional","name":"Ich fühle mich hier ziemlich Einsam..."}},{"id":"GC77EMD","parsed":{"lat":51.3363,"lon":12.253117,"type":"multi","name":"Pferde am Zschampert"}},{"id":"GC6WNVN","parsed":{"lat":51.33655,"lon":12.3054,"type":"traditional","name":"Paintball Megapark Leipzig"}},{"id":"GC6FNZE","parsed":{"lat":51.335017,"lon":12.261483,"type":"mystery","name":"Ein GEO-Cache"}},{"id":"GC70EWN","parsed":{"lat":51.335183,"lon":12.297,"type":"mystery","name":"Das Buch der Bücher"}},{"id":"GC45BJY","parsed":{"lat":51.332983,"lon":12.144633,"type":"traditional","name":"Pissener Cacherunde #3 Bauer Lindemanns Steine "}},{"id":"GC711Z2","parsed":{"lat":51.332617,"lon":12.255567,"type":"traditional","name":"Die Zunftlade"}},{"id":"GC677ZF","parsed":{"lat":51.331233,"lon":12.204333,"type":"multi","name":"Pristewelic"}},{"id":"GC7CVK3","parsed":{"lat":51.331283,"lon":12.282283,"type":"traditional","name":"Am Wasserloch"}},{"id":"GC6BPWJ","parsed":{"lat":51.331983,"lon":12.293967,"type":"traditional","name":"🐹 Lock¦stoff 🐹"}},{"id":"GC4ZP8N","parsed":{"lat":51.331167,"lon":12.308483,"type":"mystery","name":"flying saucers"}},{"id":"GC45BJD","parsed":{"lat":51.33,"lon":12.146,"type":"traditional","name":"Pissener Cacherunde #1 Der Blick auf Pissen "}},{"id":"GC3TKB9","parsed":{"lat":51.327767,"lon":12.246283,"type":"mystery","name":"Bernsteinzimmer"}},{"id":"GC45H18","parsed":{"lat":51.327533,"lon":12.2716,"type":"traditional","name":"Zum Goldbären "}},{"id":"GC6V1KT","parsed":{"lat":51.32585,"lon":12.253283,"type":"traditional","name":"Schimmel & Co."}},{"id":"GC2ADWV","parsed":{"lat":51.326333,"lon":12.2913,"type":"traditional","name":"Äffchen"}},{"id":"GC68RGM","parsed":{"lat":51.325033,"lon":12.2623,"type":"mystery","name":"Linie 15"}},{"id":"GC28F66","parsed":{"lat":51.325083,"lon":12.298067,"type":"mystery","name":"Ost Comic Nr. 1"}},{"id":"GC4WP8J","parsed":{"lat":51.323733,"lon":12.171533,"type":"traditional","name":"A9 Parkplatz Bachfurt Ost"}},{"id":"GC7BHBM","parsed":{"lat":51.322517,"lon":12.260883,"type":"multi","name":"Kirchhof Miltitz"}},{"id":"GC6HC5W","parsed":{"lat":51.322617,"lon":12.296767,"type":"traditional","name":"Stadterneuerung on Tour 2016 - Nr. 1"}},{"id":"GC2NNMH","parsed":{"lat":51.3212,"lon":12.137316666666667,"type":"traditional","name":"Am Schrägweg "}},{"id":"GC4N4WZ","parsed":{"lat":51.321133,"lon":12.28355,"type":"mystery","name":"200 auf einen Streich!!! (Challenge-Cache)"}},{"id":"GC54D2Z","parsed":{"lat":51.320667,"lon":12.3002,"type":"mystery","name":"TBBT - Der Cache"}},{"id":"GC5A3ED","parsed":{"lat":51.320667,"lon":12.305933,"type":"traditional","name":"Grundsteinlegung Grünau"}},{"id":"GC52X95","parsed":{"lat":51.318817,"lon":12.246167,"type":"multi","name":"Waldfriedhof Miltitz"}},{"id":"GC6HH3D","parsed":{"lat":51.318933,"lon":12.2672,"type":"traditional","name":"Stadterneuerung on Tour 2016 - Nr. 5"}},{"id":"GC3G0QH","parsed":{"lat":51.318517,"lon":12.218517,"type":"mystery","name":"Klare Aufgabe "}},{"id":"GC6YJYF","parsed":{"lat":51.31806666666667,"lon":12.232366666666667,"type":"traditional","name":"Primzahl mit Wurzel"}},{"id":"GC7C826","parsed":{"lat":51.317583,"lon":12.284817,"type":"traditional","name":"Straße der Bauarbeiter "}},{"id":"GC7CVR6","parsed":{"lat":51.318083,"lon":12.289,"type":"mystery","name":"Platzhalter Cache .. "}},{"id":"GC4FBXH","parsed":{"lat":51.3175,"lon":12.300833,"type":"mystery","name":"Grüne Lunge Kochpark"}},{"id":"GC6XP30","parsed":{"lat":51.316417,"lon":12.140833,"type":"mystery","name":"Afrika-Rätselhafter Kontinent # Forscher&Entdecker"}},{"id":"GC7AX2E","parsed":{"lat":51.316983,"lon":12.255567,"type":"multi","name":"Leitplankencache mal anders"}},{"id":"GC5J895","parsed":{"lat":51.316667,"lon":12.279617,"type":"mystery","name":"Kannst du sächsisch??"}},{"id":"GC6XP3R","parsed":{"lat":51.313833,"lon":12.138917,"type":"mystery","name":"Afrika-Rätselhafter Kontinent # Kaffee"}},{"id":"GC6XP46","parsed":{"lat":51.313833,"lon":12.14525,"type":"mystery","name":"Afrika-Rätselhafter Kontinent # Geographie"}},{"id":"GC407N2","parsed":{"lat":51.3145,"lon":12.172833,"type":"multi","name":"Dorfbewohner "}},{"id":"GC4FBY1","parsed":{"lat":51.3141,"lon":12.185783,"type":"traditional","name":" Dose gefunden???"}},{"id":"GC7F7PP","parsed":{"lat":51.315,"lon":12.2456,"type":"mystery","name":"WER IST ES ?"}},{"id":"GC55CT8","parsed":{"lat":51.314,"lon":12.254167,"type":"mystery","name":"Mysteriöser Kulki-Multi"}},